stop_id,stop_code,stop_name,stop_desc,stop_lat,stop_lon,zone_id,stop_url,location_type,parent_station,stop_timezone,wheelchair_boarding,platform_code
1,1,Airport & Brooks,AIRPORT RD,43.130508,-77.665723,,,,,,0,
3,3,Airport & Terminal Lower Level,AIRPORT RD & EASTSIDE WAY,43.127913,-77.663865,,,,,,0,
9,9,Alexander & Gardiner,ALEXANDER ST & GARDINER PARK,43.153279,-77.595235,,,,,,0,
10,10,Alexander & Gardiner,273 ALEXANDER ST & CHAPMAN AL,43.15311,-77.595546,,,,,,0,
13,13,Alexander & Park,ALEXANDER ST & PARK AVE,43.152146,-77.595779,,,,,,0,
17,17,Arnett & Genesee,ARNETT BLVD & GENESEE ST,43.142169,-77.636896,,,,,,0,
18,18,Arnett & Kenwood,ARNETT BLVD & KENWOOD AVE,43.142301,-77.639453,,,,,,0,
19,19,Arnett & Post,ARNETT BLVD & POST AVE,43.142173,-77.648192,,,,,,0,
20,20,Arnett & Post,,43.142342,-77.647859,,,,,,0,
21,21,Arnett & Rugby,ARNETT BLVD & RUGBY AVE,43.142155,-77.643471,,,,,,0,
22,22,Arnett & Rugby,ARNETT BLVD & RUGBY AVE,43.14229,-77.643586,,,,,,0,
23,23,Arnett & Wellington,ARNETT BLVD & WELLINGTON AVE,43.142325,-77.64104,,,,,,0,
24,24,Arnett & Wellington,ARNETT BLVD & WELLINGTON AVE,43.142174,-77.640887,,,,,,0,
25,25,Arnett & Woodbine,ARNETT BLVD & WOODBINE AVE,43.142192,-77.646017,,,,,,0,
26,26,Arnett & Woodbine,ARNETT BLVD & WOODBINE AVE,43.142281,-77.645704,,,,,,0,
33,33,Backus & 40 Backus,BACKUS ST & PHELPS AVE,43.172906,-77.632285,,,,,,0,
37,37,Backus & Bloss,BACKUS ST & BLOSS ST,43.170418,-77.632314,,,,,,0,
39,39,Backus & Phelps,BACKUS ST & PHELPS AVE,43.171668,-77.632328,,,,,,0,
48,48,Bay & Ackerman,BAY ST & ACKERMAN ST,43.171085,-77.576427,,,,,,0,
49,49,Bay & Baycliff,BAY ST & BAYCLIFF DR,43.171161,-77.576179,,,,,,0,
52,52,Bay & Coverly,BAY ST & COVERLY ST,43.171407,-77.562083,,,,,,0,
53,53,Bay & Culver,,43.171592,-77.560761,,,,,,0,
54,54,Bay & Dorset,BAY ST & DORSET ST,43.171311,-77.570594,,,,,,0,
55,55,Bay & Edgeland,BAY ST & EDGELAND ST,43.171436,-77.565274,,,,,,0,
56,56,Bay & Ellison,BAY ST & ELLISON ST,43.17122,-77.573899,,,,,,0,
57,57,Bay & Ellison,BAY ST & ELLISON ST,43.171107,-77.57428,,,,,,0,
60,60,Bay & 5th,BAY ST & 5TH ST,43.170866,-77.583805,,,,,,0,
61,61,Bay & 1st,BAY ST & 1ST ST,43.170726,-77.588345,,,,,,0,
62,62,Bay & 1st,BAY ST & 1ST ST,43.170846,-77.588056,,,,,,0,
63,63,Bay & Goodman,BAY ST & GOODMAN ST N,43.170979,-77.579115,,,,,,0,
64,64,Bay & Goodman,BAY ST & GOODMAN ST N,43.171067,-77.57975,,,,,,0,
65,65,Bay & Harvest,BAY ST & HARVEST ST,43.170974,-77.583961,,,,,,0,
71,71,Bay & McKinster,BAY ST & MCKINSTER ST,43.171337,-77.565281,,,,,,0,
72,72,Bay & Morton,BAY ST & MORTON ST,43.171265,-77.57275,,,,,,0,
76,76,Bay & Salisbury,BAY ST & SALISBURY ST,43.171278,-77.567488,,,,,,0,
77,77,Bay & Salisbury,BAY ST & SALISBURY ST,43.1714,-77.567348,,,,,,0,
78,78,Bay & 7th,BAY ST & 7TH ST,43.170908,-77.581561,,,,,,0,
79,79,Bay & 6th,BAY ST & 6TH ST,43.171004,-77.581857,,,,,,0,
85,85,Bay & Webster,,43.171159,-77.569808,,,,,,0,
88,88,Bay & Wendell,BAY ST & WENDELL ST,43.171169,-77.572662,,,,,,0,
103,103,Beach & Estes,BEACH AVE & ESTES ST,43.25907,-77.609385,,,,,,0,
135,135,Blossom & Beresford,BLOSSOM RD & BERESFORD RD,43.149338,-77.548569,,,,,,0,
136,136,Blossom & Beresford,BLOSSOM RD & BERESFORD RD,43.149425,-77.548267,,,,,,0,
137,137,Blossom & Blossom Circle,STATE RTE 941V & BLOSSOM CIR W,43.149419,-77.530828,,,,,,0,
138,138,Blossom & Bobrich,BLOSSOM RD & BOBRICH DR,43.149296,-77.546461,,,,,,0,
139,139,Blossom & Clover,STATE RTE 941V & CLOVER ST,43.149271,-77.534964,,,,,,0,
140,140,Blossom & Clover,STATE RTE 941V & CLOVER ST,43.149169,-77.535367,,,,,,0,
141,141,Blossom & Croydon,BLOSSOM RD & CROYDON RD,43.149387,-77.545876,,,,,,0,
144,144,Blossom & Gas Light,STATE RTE 941V & GAS LIGHT LN,43.149254,-77.542876,,,,,,0,
145,145,Blossom & Landing,STATE RTE 941V & LANDING RD N,43.149433,-77.528782,,,,,,0,
146,146,Blossom & Mercy High,STATE RTE 941V & CLOVER ST,43.149287,-77.537639,,,,,,0,
147,147,Blossom & Mercy High,STATE RTE 941V & CLOVER ST,43.149201,-77.537581,,,,,,0,
152,152,Blossom & Winton,,43.149394,-77.551991,,,,,,0,
153,153,Blossom & Winton,BLOSSOM RD & WINTON RD N,43.149482,-77.552163,,,,,,0,
154,154,Blossom & Wyatt,STATE RTE 941V & WYATT DR,43.149474,-77.52998,,,,,,0,
174,174,Broad & Allen,STATE HWY 31 & ALLEN ST,43.156698,-77.624318,,,,,,0,
175,175,Broad & Allen,STATE HWY 31 & ALLEN ST,43.156275,-77.623893,,,,,,0,
181,181,Broad & Jay,STATE HWY 31 & JAY ST,43.15952,-77.627259,,,,,,0,
182,182,Broad & Lyell,STATE HWY 31 & JAY ST,43.16405,-77.633654,,,,,,0,
183,183,Broad & Lyell,STATE HWY 31 & RAMP,43.163792,-77.633645,,,,,,0,
184,184,Broad & Main,,43.154645,-77.621047,,,,,,0,
185,185,Broad & Main,STATE HWY 31 & STATE HWY 33,43.154748,-77.620807,,,,,,0,
187,187,Broad & Orange,STATE HWY 31 & ORANGE ST,43.158929,-77.626291,,,,,,0,
190,190,Broad & Romeyn,STATE HWY 31 & ROMEYN ST,43.158731,-77.626186,,,,,,0,
229,229,Brooks & 1214 Brooks,STATE HWY 204 & AIRPORT RD,43.130879,-77.669042,,,,,,0,
232,232,Brooks & Barge Canal,STATE HWY 204 & RAMP,43.130831,-77.65847,,,,,,0,
236,236,Brooks & Burlington,BROOKS AVE & BURLINGTON AVE,43.131041,-77.64655,,,,,,0,
237,237,Brooks & Chandler,BROOKS AVE & CHANDLER ST,43.130969,-77.643444,,,,,,0,
240,240,Brooks & Fairview,BROOKS AVE & FAIRVIEW AVE,43.130906,-77.650271,,,,,,0,
241,241,Brooks & Genesee,BROOKS AVE & GENESEE ST,43.130996,-77.63654,,,,,,0,
242,242,Brooks & Genesee Park,BROOKS AVE & GENESEE PARK BLVD,43.13088,-77.655007,,,,,,0,
245,245,Brooks Landing,BROOKS AVE & GENESEE ST,43.131133,-77.636881,,,,,,0,
246,246,Brooks & Maxwell,BROOKS AVE & MAXWELL AVE,43.131042,-77.64468,,,,,,0,
247,247,Brooks & Millbank,BROOKS AVE & MILLBANK ST,43.131058,-77.639541,,,,,,0,
248,248,Brooks & Paige,BROOKS AVE & PAIGE ST,43.131044,-77.638902,,,,,,0,
249,249,Brooks & Post,BROOKS AVE & POST AVE,43.130939,-77.647753,,,,,,0,
251,251,Brooks & Route 390,STATE HWY 204 & RAMP,43.130961,-77.659159,,,,,,0,
253,253,Brooks & Thurston,BROOKS AVE & THURSTON RD,43.130985,-77.6504,,,,,,0,
254,254,Brooks & Wegmans Dist Ctr,,43.130656,-77.676825,,,,,,0,
255,255,Brooks & Westfield,,43.130994,-77.655037,,,,,,0,
256,256,Brooks & Woodbine,BROOKS AVE & WOODBINE AVE,43.130934,-77.645343,,,,,,0,
260,260,Browncroft & Browncroft Townhouses,STATE HWY 286 & UNNAMED ST,43.157657,-77.536935,,,,,,0,
262,262,Browncroft & Newcastle,BROWNCROFT BLVD & NEWCASTLE RD,43.157416,-77.541899,,,,,,0,
265,265,Buffalo & 1150 Buffalo,STATE HWY 33 & UNNAMED ST,43.150044,-77.682174,,,,,,0,
266,266,Buffalo & 1150 Buffalo,STATE HWY 33 & UNNAMED ST,43.149909,-77.682165,,,,,,0,
268,268,Buffalo & 1931 Buffalo,STATE HWY 33 & BUFFALO RD,43.14912,-77.703417,,,,,,0,
269,269,Buffalo & Wegman,STATE HWY 33 & COUNTY HWY 160,43.147264,-77.710985,,,,,,0,
270,270,Buffalo & 535 Buffalo,STATE HWY 33 & COUNTY HWY 160,43.150368,-77.66382,,,,,,0,
271,271,Buffalo & 535 Buffalo,STATE HWY 33 & COUNTY HWY 160,43.150304,-77.663592,,,,,,0,
276,276,Buffalo & Columbus,STATE HWY 33 & RELLIM BLVD,43.149785,-77.69341,,,,,,0,
277,277,Buffalo & Crestwood,STATE HWY 33 & CRESTWOOD BLVD,43.14999,-77.687542,,,,,,0,
278,278,Buffalo & Crestwood,STATE HWY 33 & CRESTWOOD BLVD,43.149868,-77.687803,,,,,,0,
279,279,Buffalo & Davy,STATE HWY 33 & DAVY DR,43.144514,-77.725058,,,,,,0,
280,280,Buffalo & Dearcop,STATE HWY 33 & DEARCOP DR,43.1499,-77.677086,,,,,,0,
281,281,Buffalo & Dearcop,STATE HWY 33 & DEARCOP DR,43.150043,-77.677056,,,,,,0,
282,282,Buffalo & 1941 Buffalo,STATE HWY 33 & COUNTY HWY 160,43.149333,-77.703264,,,,,,0,
283,283,Buffalo & Elmgrove,STATE HWY 33 & ELMGROVE ROAD EXT,43.144006,-77.731848,,,,,,0,
284,284,Buffalo & Elmgrove,STATE HWY 33 & ELMGROVE ROAD EXT,43.143877,-77.731702,,,,,,0,
287,287,Buffalo & Green Acre,STATE HWY 33 & GREEN ACRE LN,43.149894,-77.698972,,,,,,0,
288,288,Buffalo & Green Acre,STATE HWY 33 & GREEN ACRE LN,43.149797,-77.69943,,,,,,0,
290,290,Buffalo & Howard,STATE HWY 33 & STATE RTE 940L,43.149968,-77.690474,,,,,,0,
291,291,Buffalo & Howard,STATE HWY 33 & STATE RTE 940L,43.149863,-77.690023,,,,,,0,
295,295,Buffalo & McKee,STATE HWY 33 & MCKEE RD,43.150024,-77.668326,,,,,,0,
296,296,Buffalo & McKee,STATE HWY 33 & MCKEE RD,43.149905,-77.667811,,,,,,0,
298,298,Buffalo & Mt Read,STATE HWY 33 & MILLER DR,43.151628,-77.661639,,,,,,0,
304,304,Buffalo & Rellim,STATE HWY 33 & RELLIM BLVD,43.14997,-77.693795,,,,,,0,
306,306,Buffalo & Trabold,STATE HWY 33 & TRABOLD RD,43.144259,-77.726351,,,,,,0,
311,311,Buffalo & Wegman,STATE HWY 33 & COUNTY HWY 156,43.146858,-77.711534,,,,,,0,
312,312,Buffalo & Westmar Plaza,STATE HWY 33 & COUNTY HWY 160,43.147906,-77.708476,,,,,,0,
314,314,Byron & Clinton,STATE HWY 15 & CLINTON AVE S,43.148442,-77.604407,,,,,,0,
352,352,Carter & 997 Carter,CARTER ST & REXFORD ST,43.196221,-77.59229,,,,,,0,
354,354,Carter & Brambury,CARTER ST & BRAMBURY DR,43.194971,-77.592207,,,,,,0,
357,357,Carter & Rexford,CARTER ST & REXFORD ST,43.190452,-77.591984,,,,,,0,
359,359,Carter & Wilson Health Ctr,CARTER ST & DRIVEWAY,43.191566,-77.59198,,,,,,0,
366,366,Chestnut & Andrews,,43.160753,-77.603097,,,,,,0,
374,374,Chestnut & University,N CHESTNUT ST & PLEASANT ST,43.160889,-77.602988,,,,,,0,
375,375,Chestnut & Woodbury,CHESTNUT ST & STATE HWY 31,43.153264,-77.603058,,,,,,0,
383,383,Child & Campbell,CHILD ST & CAMPBELL ST,43.157471,-77.638982,,,,,,0,
384,384,Child & Campbell,CHILD ST & CAMPBELL ST,43.157244,-77.638808,,,,,,0,
385,385,Child & Jay,CHILD ST & JAY ST,43.159085,-77.638909,,,,,,0,
386,386,Child & Maple,CHILD ST & MAPLE ST,43.155362,-77.63898,,,,,,0,
388,388,Chili & 2648 Chili,STATE HWY 33A & MAPLE ST,43.125429,-77.704,,,,,,0,
389,389,Chili & 2669 Chili,STATE HWY 33A & LEXINGTON PKWY,43.124182,-77.706602,,,,,,0,
392,392,Chili & 2782 Chili,STATE HWY 33A & MARSHALL RD,43.12054,-77.714181,,,,,,0,
395,395,Chili & 3235 Chili,STATE HWY 33A & OLD SCOTTSVILLE CHILI RD,43.104479,-77.751401,,,,,,0,
396,396,Chili & Route 390 Off Ramp,STATE HWY 33A & I 390 S,43.138644,-77.670238,,,,,,0,
399,399,Chili & Archer,STATE HWY 33A & ARCHER RD,43.113656,-77.732692,,,,,,0,
400,400,Chili & Ardmore,STATE HWY 33A & ARDMORE ST,43.149526,-77.638313,,,,,,0,
401,401,Chili & Ardmore,STATE HWY 33A & ARDMORE ST,43.149735,-77.638104,,,,,,0,
405,405,Chili & Bright Oaks,STATE HWY 33A & BRIGHT OAKS DR,43.116049,-77.727791,,,,,,0,
407,407,Chili & Old Beahan,STATE HWY 33A & OLD BEAHAN RD,43.132085,-77.686189,,,,,,0,
409,409,Chili & Buell,STATE HWY 33A & BRYN MAWR RD,43.139834,-77.667427,,,,,,0,
410,410,Chili & Buell,STATE HWY 33A & BRYN MAWR RD,43.139881,-77.666673,,,,,,0,
413,413,Chili & Chestnut,STATE HWY 33A & CHESTNUT DR,43.117588,-77.720716,,,,,,0,
414,414,Chili & Chestnut,STATE HWY 33A & CHESTNUT DR,43.117682,-77.720843,,,,,,0,
415,415,Chili & Chi Mar,STATE HWY 33A & CHI MAR DR,43.119043,-77.717562,,,,,,0,
416,416,Chili & Depew,STATE HWY 33A & DEPEW ST,43.144633,-77.653267,,,,,,0,
417,417,Chili & Dorstone,STATE HWY 33A & DORSTONE RD,43.133272,-77.684667,,,,,,0,
419,419,Chili & Douglas,STATE HWY 33A & DOUGLAS DR,43.118728,-77.717968,,,,,,0,
420,420,Chili & Elham,STATE HWY 33A & ELHAM RD,43.133316,-77.684025,,,,,,0,
421,421,Chili & Fessenden,STATE HWY 33A & FESSENDEN ST,43.142077,-77.660741,,,,,,0,
422,422,Chili & Fisher,STATE HWY 33A & FISHER RD,43.130137,-77.693231,,,,,,0,
423,423,Chili & Fisher,STATE HWY 33A & FISHER RD,43.130268,-77.69379,,,,,,0,
425,425,Chili & Genesee Park,STATE HWY 33A & GENESEE PARK BLVD,43.142578,-77.658923,,,,,,0,
426,426,Chili & Genesee Park,STATE HWY 33A & GENESEE PARK BLVD,43.143139,-77.6576,,,,,,0,
427,427,Chili & Grenell,STATE HWY 33A & GRENELL DR,43.109243,-77.741715,,,,,,0,
431,431,Chili & Hobart,STATE HWY 33A & HOBART ST,43.146253,-77.648435,,,,,,0,
433,433,Chili & Jasmine,STATE HWY 33A & JASMINE RD,43.137456,-77.674492,,,,,,0,
435,435,Chili & Kernwood,STATE HWY 33A & KERNWOOD DR,43.128493,-77.697262,,,,,,0,
436,436,Chili & Chili Center Coldwater,STATE HWY 33A & UNNAMED ST,43.107912,-77.744942,,,,,,0,
437,437,Chili & Lettington,STATE HWY 33A & LETTINGTON AVE,43.135572,-77.680112,,,,,,0,
438,438,Chili & Lettington,STATE HWY 33A & LETTINGTON AVE,43.135483,-77.679682,,,,,,0,
440,440,Chili & Lexington,STATE HWY 33A & LEXINGTON PKWY,43.124039,-77.706574,,,,,,0,
441,441,Chili & Lincoln,STATE HWY 33A & LINCOLN AVE,43.143833,-77.655585,,,,,,0,
444,444,Chili & Marshall,STATE HWY 33A & MARSHALL RD,43.119833,-77.71529,,,,,,0,
449,449,Chili & Paul,STATE HWY 33A & STATE HWY 252A,43.105695,-77.748887,,,,,,0,
450,450,Chili & Paul,STATE HWY 33A & STATE HWY 252A,43.105824,-77.749113,,,,,,0,
451,451,Chili & Pearwood,STATE HWY 33A & PEARWOOD RD,43.13787,-77.672502,,,,,,0,
452,452,Chili & Pikuet,STATE HWY 33A & PIKUET DR,43.107872,-77.744393,,,,,,0,
453,453,Chili & Pixley,STATE HWY 33A & COUNTY HWY 160,43.122563,-77.709628,,,,,,0,
454,454,Chili & Pixley,STATE HWY 33A & COUNTY HWY 160,43.122851,-77.70942,,,,,,0,
455,455,Chili & Post,STATE HWY 33A & POST AVE,43.146168,-77.648226,,,,,,0,
457,457,Chili & Rugby,STATE HWY 33A & RUGBY AVE,43.148005,-77.643263,,,,,,0,
458,458,Chili & Rugby,STATE HWY 33A & RUGBY AVE,43.147674,-77.643822,,,,,,0,
460,460,Chili & Salina,STATE HWY 33A & SALINA ST,43.144849,-77.65225,,,,,,0,
464,464,Chili & Stewart,STATE HWY 33A & STEWART DR,43.136842,-77.676358,,,,,,0,
465,465,Chili & Thorndale,STATE HWY 33A & THORNDALE TER,43.14697,-77.646288,,,,,,0,
466,466,Chili & Thurston,STATE HWY 33A & THURSTON RD,43.145463,-77.650762,,,,,,0,
467,467,Chili & Thurston,STATE HWY 33A & THURSTON RD,43.145172,-77.651273,,,,,,0,
471,471,Chili & Kernwood,STATE HWY 33A & KERNWOOD DR,43.128781,-77.697232,,,,,,0,
472,472,Chili & Wegmans Market,STATE HWY 33A & WEGMANS MARKET ST,43.125444,-77.703542,,,,,,0,
473,473,Chili & Wellington,STATE HWY 33A & WELLINGTON AVE,43.148656,-77.640967,,,,,,0,
474,474,Chili & Wellington,STATE HWY 33A & WELLINGTON AVE,43.148832,-77.640765,,,,,,0,
475,475,Chili & Westfield,STATE HWY 33A & WESTFIELD ST,43.141436,-77.662584,,,,,,0,
476,476,Chili & Westfield,,43.141279,-77.662743,,,,,,0,
477,477,Chili & Brooks,STATE HWY 33A & STATE HWY 204,43.132098,-77.686772,,,,,,0,
478,478,Chili & Westgate,,43.143572,-77.655979,,,,,,0,
481,481,Chili & Woodbine,STATE HWY 33A & WOODBINE AVE,43.146943,-77.646003,,,,,,0,
494,494,Church & Hulburt,STATE HWY 31F & HULBURT AVE,43.098989,-77.452251,,,,,,0,
495,495,Church & Main,STATE HWY 31F & STATE HWY 250,43.098518,-77.442639,,,,,,0,
497,497,Church & Nelson,STATE HWY 31F & NELSON ST,43.098994,-77.452024,,,,,,0,
499,499,Church & Potter,STATE HWY 31F & POTTER PL,43.098598,-77.447125,,,,,,0,
502,502,Church & West,STATE HWY 31F & WEST ST,43.098654,-77.446253,,,,,,0,
504,504,Clifford & Alford,CLIFFORD AVE & ALFORD ST,43.175953,-77.5696,,,,,,0,
505,505,Clifford & Baycliff,CLIFFORD AVE & BAYCLIFF DR,43.175947,-77.573867,,,,,,0,
506,506,Clifford & Baycliff,CLIFFORD AVE & BAYCLIFF DR,43.175819,-77.574049,,,,,,0,
507,507,Clifford & Bedford,CLIFFORD AVE & BEDFORD ST,43.176086,-77.565762,,,,,,0,
508,508,Clifford & Caves,,43.17604,-77.57119,,,,,,0,
510,510,Clifford & Coleman,,43.175544,-77.584842,,,,,,0,
511,511,Clifford & Culver,CLIFFORD AVE & ROSEVIEW AVE,43.176434,-77.558175,,,,,,0,
515,515,Clifford & Ellison,CLIFFORD AVE & ELLISON ST,43.175913,-77.571751,,,,,,0,
516,516,Clifford & Ferncliffe,CLIFFORD AVE & 6TH ST,43.17574,-77.58242,,,,,,0,
517,517,Clifford & Garnet,CLIFFORD AVE & GARNET ST,43.175675,-77.579803,,,,,,0,
519,519,Clifford & Goodman,CLIFFORD AVE & GOODMAN ST N,43.175886,-77.575806,,,,,,0,
520,520,Clifford & Goodman,,43.175782,-77.5765,,,,,,0,
521,521,Clifford & Greenlane,CLIFFORD AVE & BEDFORD ST,43.176218,-77.565325,,,,,,0,
522,522,Clifford & Hollister,,43.17536,-77.59271,,,,,,0,
523,523,Clifford & Jerold,CLIFFORD AVE & JEROLD ST,43.175773,-77.5804,,,,,,0,
526,526,Clifford & Lincoln,CLIFFORD AVE & LINCOLN ST,43.175452,-77.59367,,,,,,0,
528,528,Clifford & Lyceum,CLIFFORD AVE & LYCEUM ST,43.17602,-77.568121,,,,,,0,
529,529,Clifford & Manitou,CLIFFORD AVE & MANITOU ST,43.175682,-77.584458,,,,,,0,
530,530,Clifford & Mapledale,CLIFFORD AVE & MAPLEDALE ST,43.176186,-77.561456,,,,,,0,
533,533,Clifford & Morton,,43.176085,-77.570003,,,,,,0,
534,534,Clifford & Pershing,CLIFFORD AVE & PERSHING DR,43.176144,-77.567295,,,,,,0,
536,536,Clifford & Portland,CLIFFORD AVE & PORTLAND AVE,43.175526,-77.590715,,,,,,0,
537,537,Clifford & Portland NS,CLIFFORD AVE & PORTLAND AVE,43.17535,-77.591573,,,,,,0,
540,540,Clifford & 6th - School # 45,CLIFFORD AVE & 6TH ST,43.175617,-77.582225,,,,,,0,
541,541,Clifford & Spiegel,CLIFFORD AVE & SPIEGEL PARK,43.17565,-77.587152,,,,,,0,
542,542,Clifford & Spiegel,CLIFFORD AVE & SPIEGEL PARK,43.175461,-77.587324,,,,,,0,
544,544,Clifford & Woodman,CLIFFORD AVE & WOODMAN PARK,43.176361,-77.560061,,,,,,0,
552,552,Clinton & Alcazar,CLINTON AVE N & ALCAZAR ST,43.195273,-77.612457,,,,,,0,
553,553,Clinton & Alexander,CLINTON AVE S & ALEXANDER ST,43.146338,-77.602361,,,,,,0,
554,554,Clinton & Alexander,CLINTON AVE S & ALEXANDER ST,43.146051,-77.602007,,,,,,0,
557,557,Clinton & Asbury,CLINTON AVE S & ASBURY ST,43.137269,-77.594009,,,,,,0,
558,558,Clinton & Averill,CLINTON AVE S & AVERILL AVE,43.144838,-77.601273,,,,,,0,
559,559,Clinton & Averill,CLINTON AVE S & AVERILL AVE,43.144699,-77.600976,,,,,,0,
560,560,Clinton & Benton,CLINTON AVE S & BENTON ST,43.138344,-77.594864,,,,,,0,
561,561,Clinton & Benton,CLINTON AVE S & BENTON ST,43.138283,-77.594973,,,,,,0,
562,562,Clinton & Bly,CLINTON AVE S & BLY ST,43.1371,-77.594018,,,,,,0,
563,563,Clinton & Broad,S CLINTON AVE & BROAD ST E,43.155479,-77.605567,,,,,,0,
565,565,Clinton & Byron,CLINTON AVE S & RAMP,43.148287,-77.603631,,,,,,0,
566,566,Clinton & Collingwood,CLINTON AVE N & COLLINGWOOD DR,43.197145,-77.612534,,,,,,0,
567,567,Clinton & Collingwood,CLINTON AVE N & COLLINGWOOD DR,43.196941,-77.612363,,,,,,0,
568,568,Clinton & Comfort,CLINTON AVE S & COMFORT ST,43.147474,-77.603258,,,,,,0,
569,569,Clinton & Court,STATE HWY 15 & COURT ST,43.15358,-77.604873,,,,,,0,
570,570,Clinton & Elmwood,,43.124803,-77.593388,,,,,,0,
573,573,Clinton & Field,CLINTON AVE S & FIELD ST,43.13431,-77.591303,,,,,,0,
574,574,Clinton & Field,CLINTON AVE S & FIELD ST,43.134392,-77.591613,,,,,,0,
577,577,Clinton & Goodman,CLINTON AVE S & PAUL PL,43.139417,-77.595716,,,,,,0,
579,579,Clinton & Gregory,CLINTON AVE S & GREGORY ST,43.143656,-77.600315,,,,,,0,
580,580,Clinton & Gregory,CLINTON AVE S & GREGORY ST,43.143176,-77.59966,,,,,,0,
582,582,Clinton & Karges,CLINTON AVE S & KARGES PL,43.140547,-77.596813,,,,,,0,
583,583,Clinton & Long Acre,CLINTON AVE N & LONG ACRE RD,43.199193,-77.61262,,,,,,0,
586,586,Clinton & Mcquaid HS,COUNTY HWY 100 & MAIN ST E,43.12453,-77.593287,,,,,,0,
587,587,Clinton & Meigs,CLINTON AVE S & MEIGS ST,43.141709,-77.597844,,,,,,0,
588,588,Clinton & Meigs,CLINTON AVE S & MEIGS ST,43.141798,-77.598198,,,,,,0,
592,592,Clinton & Rau,CLINTON AVE N & RAU ST,43.193231,-77.612407,,,,,,0,
593,593,Clinton & Rawlinson,CLINTON AVE N & RAWLINSON RD,43.202069,-77.612758,,,,,,0,
594,594,Clinton & Rawlinson,CLINTON AVE N & RAWLINSON RD,43.201887,-77.612627,,,,,,0,
595,595,Clinton & Ridge,CLINTON AVE N & RIDGE RD E,43.19464,-77.612232,,,,,,0,
596,596,Clinton & Rau,,43.192755,-77.612677,,,,,,0,
597,597,Clinton & Rockingham,CLINTON AVE S & ROCKINGHAM ST,43.135493,-77.592599,,,,,,0,
598,598,Clinton & Rockingham,CLINTON AVE S & ROCKINGHAM ST,43.135774,-77.59298,,,,,,0,
604,604,Clinton & Spier,CLINTON AVE S & SPIER AVE,43.129888,-77.590732,,,,,,0,
605,605,Clinton & Spier,CLINTON AVE S & SPIER AVE,43.130024,-77.590901,,,,,,0,
606,606,Clinton & Suburban,CLINTON AVE S & SUBURBAN CT,43.127105,-77.59203,,,,,,0,
607,607,Clinton & Suburban,CLINTON AVE S & SUBURBAN CT,43.127042,-77.592362,,,,,,0,
609,609,Clinton & Versailles,CLINTON AVE N & VERSAILLES RD,43.196215,-77.612451,,,,,,0,
611,611,Clinton & Wimbledon,CLINTON AVE N & WIMBLEDON RD,43.204627,-77.612863,,,,,,0,
612,612,Clinton & Wimbledon,CLINTON AVE N & WIMBLEDON RD,43.204507,-77.612738,,,,,,0,
614,614,Clinton & Ave A,CLINTON AVE N & AVENUE A,43.17768,-77.613548,,,,,,0,
615,615,Clinton & Ave A,CLINTON AVE N & AVENUE A,43.178137,-77.613423,,,,,,0,
616,616,Clinton & Avenue D,,43.180229,-77.613533,,,,,,0,
617,617,Clinton & Bloomingdale,CLINTON AVE N & BLOOMINGDALE ST,43.179584,-77.613672,,,,,,0,
618,618,Clinton & Borchard,CLINTON AVE N & BORCHARD ST,43.183741,-77.613792,,,,,,0,
619,619,Clinton & Borchard,CLINTON AVE N & BORCHARD ST,43.18382,-77.613627,,,,,,0,
620,620,Clinton & Central,CLINTON AVE N & CENTRAL AVE,43.162523,-77.608531,,,,,,0,
621,621,Clinton & Central,CLINTON AVE N & CENTRAL AVE,43.162868,-77.60882,,,,,,0,
622,622,Clinton & Clifford,CLINTON AVE N & RADIO ST,43.17542,-77.61335,,,,,,0,
623,623,Clinton & Clifford,CLINTON AVE N & CLIFFORD AVE,43.175206,-77.613157,,,,,,0,
625,625,Clinton & Darrow,CLINTON AVE N & DARROW ST,43.189248,-77.613368,,,,,,0,
626,626,Clinton & Darrow,CLINTON AVE N & DARROW ST,43.189245,-77.613203,,,,,,0,
628,628,Clinton & Kelly,CLINTON AVE N & KELLY ST,43.167087,-77.610446,,,,,,0,
629,629,Clinton & Kohlman,CLINTON AVE N & KOHLMAN ST,43.181667,-77.613576,,,,,,0,
630,630,Clinton & Norton,CLINTON AVE N & NORTON ST,43.186779,-77.613678,,,,,,0,
631,631,Clinton & Norton,CLINTON AVE N & NORTON ST,43.186069,-77.613899,,,,,,0,
633,633,Clinton & Resolute,CLINTON AVE N & RESOLUTE ST,43.190182,-77.613014,,,,,,0,
634,634,Clinton & Rialto,CLINTON AVE N & RIALTO ST,43.182133,-77.613788,,,,,,0,
635,635,Clinton & Saint Bridgets,CLINTON AVE N & SAINT BRIDGETS DR,43.168094,-77.610798,,,,,,0,
636,636,Clinton & Saint Bridgets,CLINTON AVE N & SAINT BRIDGETS DR,43.168142,-77.611057,,,,,,0,
637,637,Clinton & Upper Falls,CLINTON AVE N & UPPER FALLS BLVD,43.170348,-77.611993,,,,,,0,
638,638,Clinton & Upper Falls,CLINTON AVE N & UPPER FALLS BLVD,43.170008,-77.611603,,,,,,0,
639,639,Clinton & Ward,CLINTON AVE N & WARD ST,43.164911,-77.609658,,,,,,0,
640,640,Clinton & Ward,CLINTON AVE N & WARD ST,43.164528,-77.60931,,,,,,0,
642,642,Colby & East,COLBY ST & STATE HWY 96,43.146776,-77.562049,,,,,,0,
643,643,Colby & East,,43.14686,-77.561705,,,,,,0,
644,644,Colby & Park,COLBY ST & PARK AVE,43.145828,-77.562577,,,,,,0,
652,652,Colfax & 575 Colfax,,43.1767,-77.669861,,,,,,0,
655,655,Commercial & Garfield,W COMMERCIAL ST & GARFIELD ST,43.113707,-77.488023,,,,,,0,
656,656,Commercial & Garfield,W COMMERCIAL ST & GARFIELD ST,43.113677,-77.487405,,,,,,0,
661,661,Commercial & Main,W COMMERCIAL ST & MAIN ST,43.112965,-77.485568,,,,,,0,
664,664,Commercial & Washington,W COMMERCIAL ST & STATE HWY 153,43.114355,-77.490009,,,,,,0,
665,665,Commercial & Washington,W COMMERCIAL ST & STATE HWY 153,43.1143,-77.490119,,,,,,0,
679,679,Cooper Loop,,43.21711,-77.598378,,,,,,0,
682,682,Country Club Plaza,,43.103258,-77.484057,,,,,,0,
683,683,Court & Chestnut,COURT ST & STATE HWY 15,43.15422,-77.603566,,,,,,0,
684,684,Court & Clinton,COURT ST & STATE HWY 15,43.153978,-77.60521,,,,,,0,
685,685,Court & Saint Marys,COURT ST & RAMP,43.153798,-77.606827,,,,,,0,
728,728,Strong Hospital,CRITTENDEN BLVD & CONNECTING RD,43.121695,-77.623885,,,,,,0,
735,735,Culver & 4250 Culver,COUNTY HWY 120 & DRIVEWAY,43.226094,-77.547557,,,,,,0,
737,737,Culver & Adrian,COUNTY HWY 120 & ADRIAN RD,43.222942,-77.550378,,,,,,0,
739,739,Culver & Avondale,COUNTY HWY 120 & AVONDALE RD,43.218066,-77.555372,,,,,,0,
740,740,Culver & Bay,CULVER RD & BAY ST,43.171689,-77.559912,,,,,,0,
743,743,Culver & Breezeway,COUNTY HWY 120 & BREEZEWAY DR,43.229877,-77.54555,,,,,,0,
744,744,Culver & Breezeway,COUNTY HWY 120 & BREEZEWAY DR,43.23019,-77.54556,,,,,,0,
748,748,Culver & Charwood - North,CULVER RD & CHARWOOD CIR,43.184128,-77.560688,,,,,,0,
751,751,Culver & Corley,COUNTY HWY 120 & CORLEY DR,43.224889,-77.548616,,,,,,0,
755,755,Culver & Durand Blvd,COUNTY HWY 120 & DEWBERRY DR,43.227468,-77.546793,,,,,,0,
756,756,Culver & Durand Dr,COUNTY HWY 120 & DURAND DR,43.222902,-77.550642,,,,,,0,
762,762,Culver & Fairlea,COUNTY HWY 120 & FAIRLEA DR,43.219467,-77.554154,,,,,,0,
763,763,Culver & Ferris,CULVER RD & FERRIS ST,43.170109,-77.560768,,,,,,0,
765,765,Culver & Garford,,43.212415,-77.559731,,,,,,0,
766,766,Culver & Garford,COUNTY HWY 120 & GARFORD RD,43.21233,-77.559644,,,,,,0,
773,773,Culver & Harwick,CULVER RD & HARWICK RD,43.173744,-77.55862,,,,,,0,
774,774,Culver & Hazelwood,CULVER RD & HAZELWOOD TER,43.167667,-77.562094,,,,,,0,
775,775,Culver & Hazelwood,CULVER RD & HAZELWOOD TER,43.167539,-77.561952,,,,,,0,
776,776,Culver & Heberle,COUNTY HWY 120 & HEBERLE RD,43.19284,-77.56114,,,,,,0,
779,779,Culver & Hoffman,COUNTY HWY 120 & HOFFMAN RD,43.217664,-77.555957,,,,,,0,
780,780,Culver & Humboldt,CULVER RD & HUMBOLDT ST,43.155106,-77.568855,,,,,,0,
781,781,Culver & Humboldt,CULVER RD & HUMBOLDT ST,43.155427,-77.568483,,,,,,0,
782,782,Culver & Lake Breeze,COUNTY HWY 120 & LAKE BREEZE PARK,43.219311,-77.554101,,,,,,0,
783,783,Culver & Lancraft,CULVER RD & LANCRAFT ST,43.177983,-77.558665,,,,,,0,
784,784,Culver & Laurelton,CULVER RD & LAURELTON RD,43.172332,-77.559428,,,,,,0,
786,786,Culver & Liberty,COUNTY HWY 120 & LIBERTY AVE,43.220341,-77.553275,,,,,,0,
789,789,Culver & Melville,CULVER RD & MELVILLE ST,43.166788,-77.562376,,,,,,0,
791,791,Culver & Merchants,CULVER RD & MERCHANTS RD,43.171041,-77.560096,,,,,,0,
793,793,Culver & Norton,CULVER RD & NORTON ST,43.187516,-77.560868,,,,,,0,
794,794,Culver & Owaissa,COUNTY HWY 120 & OWAISSA DR,43.214259,-77.558789,,,,,,0,
797,797,Culver & Pemberton,COUNTY HWY 120 & PEMBERTON RD,43.214042,-77.558785,,,,,,0,
798,798,Culver & Point Pleasant,COUNTY HWY 120 & POINT PLEASANT RD,43.223688,-77.549607,,,,,,0,
801,801,Culver & Richland,,43.170893,-77.560335,,,,,,0,
802,802,Culver & Ridge,CULVER RD & COUNTY HWY 120,43.204594,-77.561841,,,,,,0,
803,803,Culver & Ridge,CULVER RD & RIDGE RD E,43.203856,-77.562017,,,,,,0,
804,804,Culver & 1633 Culver,CULVER RD & ROCKET ST,43.175591,-77.557799,,,,,,0,
808,808,Culver & Seneca,COUNTY HWY 120 & SENECA RD,43.216148,-77.557433,,,,,,0,
809,809,Culver & Seneca,COUNTY HWY 120 & SENECA RD,43.215858,-77.557528,,,,,,0,
810,810,Culver & Seymour,CULVER RD & SEYMOUR RD,43.18096,-77.560512,,,,,,0,
811,811,Culver & Sweet Fern,COUNTY HWY 120 & COUNTY HWY 257,43.227813,-77.546827,,,,,,0,
814,814,Culver & Titus,COUNTY HWY 120 & COUNTY HWY 91,43.211717,-77.560078,,,,,,0,
815,815,Culver & Titus,COUNTY HWY 120 & COUNTY HWY 91,43.211345,-77.560103,,,,,,0,
817,817,Culver & Vermont,CULVER RD & VERMONT ST,43.169201,-77.561278,,,,,,0,
818,818,Culver & Vermont,,43.16912,-77.561126,,,,,,0,
820,820,Culver & Winfield,COUNTY HWY 120 & WINFIELD RD,43.209163,-77.561101,,,,,,0,
821,821,Culver & Winfield,COUNTY HWY 120 & WINFIELD RD,43.209306,-77.56114,,,,,,0,
822,822,Culver & Woodman,CULVER RD & WOODMAN PARK,43.17937,-77.560041,,,,,,0,
823,823,Culver & Worthington,COUNTY HWY 120 & WORTHINGTON RD,43.207044,-77.562025,,,,,,0,
824,824,Culver & Worthington,COUNTY HWY 120 & WORTHINGTON RD,43.207298,-77.56209,,,,,,0,
839,839,Curlew & Emerson,CURLEW ST & EMERSON ST,43.174076,-77.648313,,,,,,0,
840,840,Curlew & Emerson,CURLEW ST & EMERSON ST,43.17429,-77.648182,,,,,,0,
841,841,Curlew & Glenwood,CURLEW ST & GLENWOOD AVE,43.176793,-77.64819,,,,,,0,
842,842,Curlew & Glenwood,CURLEW ST & GLENWOOD AVE,43.176975,-77.64831,,,,,,0,
843,843,Curlew & Lexington,CURLEW ST & LEXINGTON AVE,43.178559,-77.648287,,,,,,0,
844,844,Curlew & Lexington,CURLEW ST & LEXINGTON AVE,43.179096,-77.648177,,,,,,0,
849,849,Dewey & Alameda,DEWEY AVE & ALAMEDA ST,43.186977,-77.638753,,,,,,0,
850,850,Dewey & Alameda,DEWEY AVE & ALAMEDA ST,43.187405,-77.63904,,,,,,0,
853,853,Dewey & Birr,DEWEY AVE & BIRR ST,43.185156,-77.63875,,,,,,0,
854,854,Dewey & Birr,DEWEY AVE & BIRR ST,43.185381,-77.639049,,,,,,0,
857,857,Dewey & Clay,DEWEY AVE & CLAY AVE,43.191598,-77.63878,,,,,,0,
858,858,Dewey & Clay,DEWEY AVE & CLAY AVE,43.191808,-77.638954,,,,,,0,
861,861,Dewey & Driving Park,DEWEY AVE & DRIVING PARK AVE,43.181175,-77.639449,,,,,,0,
865,865,Dewey & Glenwood,DEWEY AVE & GLENWOOD AVE,43.177051,-77.639585,,,,,,0,
866,866,Dewey & Glenwood,DEWEY AVE & GLENWOOD AVE,43.176781,-77.639378,,,,,,0,
868,868,Dewey & Kislingbury,DEWEY AVE & KISLINGBURY ST,43.183674,-77.638985,,,,,,0,
871,871,Dewey & Lexington,DEWEY AVE & LEXINGTON AVE,43.179618,-77.639394,,,,,,0,
873,873,Dewey & Magee,DEWEY AVE & MAGEE AVE,43.190099,-77.63901,,,,,,0,
874,874,Dewey & Magee,DEWEY AVE & MAGEE AVE,43.189995,-77.638756,,,,,,0,
875,875,Dewey & Ravine,DEWEY AVE & RAVINE AVE,43.175077,-77.639362,,,,,,0,
876,876,Dewey & Ravine,DEWEY AVE & RAVINE AVE,43.175328,-77.639589,,,,,,0,
877,877,Dewey & Ridgeway,DEWEY AVE & RIDGEWAY AVE,43.193694,-77.638762,,,,,,0,
878,878,Dewey & Selye,DEWEY AVE & SELYE TER,43.181552,-77.63872,,,,,,0,
882,882,Dewey & Pomona,STATE HWY 18 & POMONA DR,43.225406,-77.643004,,,,,,0,
886,886,Dewey & Avis,DEWEY AVE & AVIS ST,43.195538,-77.639015,,,,,,0,
887,887,Dewey & Avis,DEWEY AVE & AVIS ST,43.195354,-77.638771,,,,,,0,
888,888,Dewey & Banker,STATE HWY 18 & BANKER PL,43.21473,-77.640262,,,,,,0,
894,894,Dewey & Brookridge,STATE HWY 18 & BROOKRIDGE DR,43.229822,-77.646523,,,,,,0,
895,895,Dewey & Brookridge,STATE HWY 18 & BROOKRIDGE DR,43.229939,-77.646802,,,,,,0,
896,896,Dewey & Burling,STATE HWY 18 & BURLING RD,43.216564,-77.641374,,,,,,0,
898,898,Dewey & Christian,STATE HWY 18 & CHRISTIAN AVE,43.204962,-77.63881,,,,,,0,
899,899,Dewey & Dalston,STATE HWY 18 & DALSTON RD,43.221293,-77.641447,,,,,,0,
900,900,Dewey & De Neve,DEWEY AVE & DE NEVE AVE,43.198934,-77.638935,,,,,,0,
903,903,Dewey & Dunsmere,STATE HWY 18 & DUNSMERE DR,43.208988,-77.638756,,,,,,0,
904,904,Dewey & Dunsmere,STATE HWY 18 & DUNSMERE DR,43.208851,-77.638541,,,,,,0,
905,905,Dewey & Eastman,STATE HWY 18 & EASTMAN AVE,43.201831,-77.638619,,,,,,0,
907,907,Dewey & Ridge,STATE HWY 18 & EASTMAN AVE,43.201626,-77.638842,,,,,,0,
908,908,Dewey & Eglantine,STATE HWY 18 & EGLANTINE RD,43.218967,-77.641382,,,,,,0,
909,909,Dewey & Ellington,STATE HWY 18 & ELLINGTON RD,43.215263,-77.64045,,,,,,0,
910,910,Dewey & Ellington,STATE HWY 18 & ELLINGTON RD,43.215348,-77.640722,,,,,,0,
911,911,Dewey & English,STATE HWY 18 & ENGLISH RD,43.23821,-77.646727,,,,,,0,
916,916,Dewey & Florida,STATE HWY 18 & FLORIDA AVE,43.218638,-77.641189,,,,,,0,
925,925,Dewey & Maiden,STATE HWY 18 & MAIDEN LN,43.223635,-77.641721,,,,,,0,
926,926,Dewey & Mc Call,STATE HWY 18 & MCCALL RD,43.210799,-77.638479,,,,,,0,
927,927,Dewey & Mc Call,STATE HWY 18 & MCCALL RD,43.211065,-77.638644,,,,,,0,
928,928,Dewey & Merrill,STATE HWY 18 & MERRILL ST,43.204694,-77.638577,,,,,,0,
930,930,Dewey & Palm,DEWEY AVE & PALM ST,43.197507,-77.638943,,,,,,0,
935,935,Dewey & Ridge,,43.199736,-77.638684,,,,,,0,
936,936,Dewey & Ridgeway,DEWEY AVE & RIDGEWAY AVE,43.194121,-77.638949,,,,,,0,
938,938,Dewey & Rodessa,STATE HWY 18 & RODESSA RD,43.220147,-77.64119,,,,,,0,
942,942,Dewey & Steko,DEWEY AVE & STEKO AVE,43.197066,-77.638737,,,,,,0,
943,943,Dewey & Stone,STATE HWY 18 & STONE RD,43.223101,-77.641183,,,,,,0,
944,944,Dewey & Strathmore,STATE HWY 18 & STRATHMORE DR,43.226596,-77.644573,,,,,,0,
945,945,Dewey & Studley,,43.216904,-77.641194,,,,,,0,
947,947,Dewey & Wildwood,STATE HWY 18 & WILDWOOD DR,43.228434,-77.646189,,,,,,0,
948,948,Dewey & Wildwood,STATE HWY 18 & WILDWOOD DR,43.228376,-77.645929,,,,,,0,
949,949,Dewey & Williston,,43.220542,-77.641394,,,,,,0,
950,950,Dewey & Winchester,STATE HWY 18 & WINCHESTER ST,43.205632,-77.638592,,,,,,0,
951,951,Dewey & Winchester,STATE HWY 18 & WINCHESTER ST,43.205851,-77.638788,,,,,,0,
971,971,Driving Park & Archer,DRIVING PARK AVE & ARCHER ST,43.180999,-77.641366,,,,,,0,
972,972,Driving Park & Argo,,43.180949,-77.647793,,,,,,0,
975,975,Driving Park & Dewey,,43.180985,-77.638637,,,,,,0,
976,976,Driving Park & Dove,DRIVING PARK AVE & DOVE ST,43.180966,-77.645271,,,,,,0,
978,978,Driving Park & Holmes,DRIVING PARK AVE & HOLMES ST,43.180981,-77.643235,,,,,,0,
982,982,Driving Park & Pierpont,DRIVING PARK AVE & PIERPONT ST,43.180944,-77.636857,,,,,,0,
986,986,Driving Park & Tacoma,DRIVING PARK AVE & TACOMA ST,43.180961,-77.634783,,,,,,0,
994,994,East & 1765 East,,43.145653,-77.555968,,,,,,0,
1003,1003,East & 4045 East,STATE HWY 96 & DRIVEWAY,43.106646,-77.516092,,,,,,0,
1004,1004,East & 4045 East,EAST AVE & STATE HWY 96,43.106468,-77.516212,,,,,,0,
1007,1007,East & Alexander,STATE HWY 96 & ALEXANDER ST,43.155062,-77.594633,,,,,,0,
1008,1008,East & Allen,,43.116028,-77.517163,,,,,,0,
1013,1013,East & Alpine S,STATE HWY 96 & ALPINE DR,43.111305,-77.517224,,,,,,0,
1021,1021,East & Briar Patch,STATE HWY 96 & BRIAR PATCH RD,43.103391,-77.514856,,,,,,0,
1022,1022,East & Briar Patch,STATE HWY 96 & UNNAMED ST,43.103396,-77.514991,,,,,,0,
1031,1031,East & Country Club,STATE HWY 96 & COUNTRY CLUB DR,43.111207,-77.517354,,,,,,0,
1041,1041,East & French,STATE HWY 96 & FRENCH RD,43.097649,-77.514216,,,,,,0,
1042,1042,East & French,STATE HWY 96 & FRENCH RD,43.097496,-77.514026,,,,,,0,
1065,1065,East & New England,STATE HWY 96 & NEW ENGLAND DR,43.100314,-77.514055,,,,,,0,
1066,1066,East & New England,STATE HWY 96 & NEW ENGLAND DR,43.100213,-77.513955,,,,,,0,
1075,1075,East & Park,STATE HWY 96 & PARK AVE,43.146669,-77.56012,,,,,,0,
1076,1076,East & Park,STATE HWY 96 & PARK AVE,43.146649,-77.560453,,,,,,0,
1084,1084,East & Probert,STATE HWY 96 & PROBERT ST,43.146043,-77.558122,,,,,,0,
1093,1093,East & Sylvania,STATE HWY 96 & SYLVANIA RD,43.113355,-77.517328,,,,,,0,
1094,1094,East & Union,STATE HWY 96 & N UNION ST,43.155668,-77.596555,,,,,,0,
1109,1109,E Henrietta & 1095 E Henrietta,STATE HWY 15A & ELMWOOD AVE,43.098573,-77.613446,,,,,,0,
1111,1111,E Henrietta & 1575 E Henrietta,,43.089255,-77.610207,,,,,,0,
1116,1116,E Henrietta & Boothe,STATE HWY 15A & BOOTHE ST,43.119309,-77.617921,,,,,,0,
1117,1117,E Henrietta & Brighton Park,STATE HWY 15A & BRIGHTON PARK,43.118091,-77.617407,,,,,,0,
1118,1118,E Henrietta & Brighton Park,STATE HWY 15A & BRIGHTON PARK,43.118289,-77.61764,,,,,,0,
1120,1120,E Henrietta & Crittenden,,43.105316,-77.615987,,,,,,0,
1121,1121,E Henrietta & E Squire,STATE HWY 15A & E SQUIRE DR,43.100093,-77.614362,,,,,,0,
1124,1124,E Henrietta & Rosemount,STATE HWY 15A & FORT HILL TER,43.120952,-77.618613,,,,,,0,
1128,1128,E Henrietta & Jarley,STATE HWY 15A & JARLEY RD,43.0906,-77.61034,,,,,,0,
1129,1129,E Henrietta & Jefferson,STATE HWY 15A & PARKING LOT,43.087573,-77.609584,,,,,,0,
1130,1130,E Henrietta & Jefferson,STATE HWY 15A & STATE HWY 252,43.087763,-77.609216,,,,,,0,
1133,1133,E Henrietta & E Squire,STATE HWY 15A & E SQUIRE DR,43.100935,-77.614341,,,,,,0,
1136,1136,E Henrietta & Metro,STATE HWY 15A & METRO PARK,43.097843,-77.613508,,,,,,0,
1137,1137,E Henrietta & Monroe Community Hosp,STATE HWY 15A & STANYALE DR,43.113213,-77.616252,,,,,,0,
1139,1139,E Henrietta & Rosemount,STATE HWY 15A & ROSEMOUNT ST,43.120745,-77.618723,,,,,,0,
1142,1142,E Henrietta & Skinner,STATE HWY 15A & UNNAMED ST,43.105824,-77.615574,,,,,,0,
1143,1143,E Henrietta & South,STATE HWY 15A & SOUTH AVE,43.117202,-77.617023,,,,,,0,
1145,1145,E Henrietta & Stanyale,STATE HWY 15A & STANYALE DR,43.112794,-77.615991,,,,,,0,
1150,1150,E Henrietta & Westfall,STATE HWY 15A & WESTFALL RD,43.115315,-77.61645,,,,,,0,
1151,1151,E Henrietta & White Spruce,STATE HWY 15A & WHITE SPRUCE BLVD,43.103022,-77.615418,,,,,,0,
1152,1152,E Henrietta & White Spruce,STATE HWY 15A & E SQUIRE DR,43.102644,-77.614985,,,,,,0,
1164,1164,E Squire & Crittenden,,43.104616,-77.621236,,,,,,0,
1165,1165,E Squire & E Henrietta,E SQUIRE DR & STATE HWY 15A,43.100341,-77.615308,,,,,,0,
1166,1166,E Squire & E Henrietta,E SQUIRE DR & STATE HWY 15A,43.100454,-77.615141,,,,,,0,
1167,1167,E Squire & Lot 14,,43.102848,-77.621162,,,,,,0,
1168,1168,E Squire & Lot 14,E SQUIRE DR & STATE HWY 15A,43.103189,-77.621302,,,,,,0,
1169,1169,E Squire & Lot 18,E SQUIRE DR & STATE HWY 15A,43.104458,-77.621353,,,,,,0,
1170,1170,E Squire & Lot 5,E SQUIRE DR & STATE HWY 15A,43.100843,-77.617488,,,,,,0,
1171,1171,E Squire & Lot 6,E SQUIRE DR & STATE HWY 15A,43.100979,-77.617585,,,,,,0,
1172,1172,E Squire & W Squire,E SQUIRE DR & W SQUIRE DR,43.101655,-77.621048,,,,,,0,
1173,1173,E Squire & W Squire,,43.101441,-77.62068,,,,,,0,
1214,1214,Edison Tech High School,,43.176546,-77.671184,,,,,,0,
1215,1215,Pittsford Palmyra & Loud,STATE HWY 31 & LOUD RD,43.064406,-77.407418,,,,,,0,
1216,1216,Pittsford Palmyra & Mason,STATE HWY 31 & MASON RD,43.064602,-77.40688,,,,,,0,
1224,1224,Elmgrove & Mile Crossings,STATE HWY 386 & UNNAMED ST,43.150928,-77.732255,,,,,,0,
1231,1231,Elmwood & 1000 Elmwood,ELMWOOD AVE & CONNECTING RD,43.124988,-77.612541,,,,,,0,
1233,1233,Elmwood & 1580 Elmwood,ELMWOOD AVE & COUNTY HWY 87,43.125629,-77.595591,,,,,,0,
1238,1238,Elmwood & Al Sigl Ctr,ELMWOOD AVE & UNNAMED ST,43.125094,-77.609773,,,,,,0,
1239,1239,Elmwood & Antlers,COUNTY HWY 87 & ANTLERS DR,43.126337,-77.570958,,,,,,0,
1241,1241,Elmwood & Azalea,ELMWOOD AVE & AZALEA RD,43.125241,-77.605731,,,,,,0,
1243,1243,Elmwood & Azalea,ELMWOOD AVE & UNNAMED ST,43.12501,-77.606821,,,,,,0,
1244,1244,Elmwood & Bonnie Brae,COUNTY HWY 87 & BONNIE BRAE AVE,43.126279,-77.572474,,,,,,0,
1245,1245,Elmwood & Bonnie Brae,COUNTY HWY 87 & BONNIE BRAE AVE,43.126143,-77.572873,,,,,,0,
1248,1248,Elmwood & Clinton,COUNTY HWY 87 & CLINTON AVE S,43.125728,-77.592342,,,,,,0,
1249,1249,Elmwood & Clinton,ELMWOOD AVE & S CLINTON AVE,43.125534,-77.593311,,,,,,0,
1250,1250,Elmwood & Clintwood,COUNTY HWY 87 & CLINTWOOD DR,43.125799,-77.58952,,,,,,0,
1251,1251,Elmwood & Clintwood,COUNTY HWY 87 & CLINTWOOD DR,43.125625,-77.589908,,,,,,0,
1252,1252,Elmwood & Cobb,COUNTY HWY 87 & COBB TER,43.125712,-77.585569,,,,,,0,
1253,1253,Elmwood & Cobb,COUNTY HWY 87 & COBB TER,43.125937,-77.585351,,,,,,0,
1258,1258,Elmwood & Elmwood Ter,ELMWOOD AVE & ELMWOOD TER,43.12545,-77.596087,,,,,,0,
1260,1260,Elmwood & Genesee Valley Park,,43.123799,-77.631824,,,,,,0,
1262,1262,Elmwood & Goodman,ELMWOOD AVE & UNNAMED ST,43.125112,-77.60438,,,,,,0,
1264,1264,Elmwood & Hollywood,COUNTY HWY 87 & HOLLYWOOD AVE,43.126283,-77.568219,,,,,,0,
1267,1267,Elmwood & Johnsarbor,COUNTY HWY 87 & JOHNSARBOR DR W,43.125315,-77.599422,,,,,,0,
1269,1269,Eastman Dental,ELMWOOD AVE & CONNECTING RD,43.124421,-77.621903,,,,,,0,
1270,1270,Elmwood & Lilac,COUNTY HWY 87 & LILAC DR,43.125268,-77.601039,,,,,,0,
1271,1271,Elmwood & Lilac,COUNTY HWY 87 & LILAC DR,43.125435,-77.600851,,,,,,0,
1273,1273,Elmwood & opp Genesee Valley Park,STATE HWY 383 & UNNAMED ST,43.1251,-77.635374,,,,,,0,
1274,1274,Elmwood Loop,,43.124604,-77.634764,,,,,,0,
1276,1276,Elmwood & Roby,COUNTY HWY 87 & ROBY DR,43.126015,-77.576058,,,,,,0,
1277,1277,Elmwood & Roby,COUNTY HWY 87 & ROBY DR,43.126183,-77.576071,,,,,,0,
1278,1278,Elmwood & Rochester Psych Ctr,ELMWOOD AVE & UNNAMED ST,43.12488,-77.61015,,,,,,0,
1279,1279,School of Medicine,ELMWOOD AVE & RAMP,43.123766,-77.627198,,,,,,0,
1281,1281,Elmwood & South,ELMWOOD AVE & SOUTHVIEW TER,43.124766,-77.614579,,,,,,0,
1282,1282,Elmwood & South,ELMWOOD AVE & SOUTH AVE,43.124979,-77.613982,,,,,,0,
1294,1294,Emerson & Backus,EMERSON ST & BACKUS ST,43.173651,-77.632662,,,,,,0,
1298,1298,Emerson & Curlew,EMERSON ST & CURLEW ST,43.173916,-77.648071,,,,,,0,
1299,1299,Emerson & Santee,,43.173944,-77.64346,,,,,,0,
1300,1300,Emerson & Dewey,EMERSON ST & DEWEY AVE,43.173553,-77.638635,,,,,,0,
1301,1301,Emerson & Dewey,EMERSON ST & DEWEY AVE,43.173656,-77.639108,,,,,,0,
1304,1304,Emerson & McNaughton,EMERSON ST & MCNAUGHTON ST,43.173771,-77.651647,,,,,,0,
1307,1307,Emerson & Mt Read,EMERSON ST & MOUNT READ BLVD,43.173789,-77.658243,,,,,,0,
1309,1309,Emerson & Northampton,EMERSON ST & NORTHAMPTON ST,43.173921,-77.656193,,,,,,0,
1310,1310,Emerson & Northampton,,43.173847,-77.656468,,,,,,0,
1312,1312,Emerson & Polaris,EMERSON ST & POLARIS ST,43.173778,-77.66775,,,,,,0,
1313,1313,Emerson & Robin,EMERSON ST & ROBIN ST,43.173817,-77.645622,,,,,,0,
1314,1314,Emerson & Robin,EMERSON ST & ROBIN ST,43.173944,-77.645503,,,,,,0,
1315,1315,Emerson & Santee,EMERSON ST & SANTEE ST,43.173829,-77.643208,,,,,,0,
1316,1316,Emerson & Stenson,EMERSON ST & STENSON ST,43.173768,-77.662978,,,,,,0,
1318,1318,Emerson & 1292 Emerson,EMERSON ST & UNNAMED ST,43.173776,-77.665283,,,,,,0,
1321,1321,Empire & 1700 Empire,STATE HWY 404 & SMITH RD,43.185169,-77.506258,,,,,,0,
1325,1325,Empire & Route 590 Exit Ramp,STATE HWY 404 & STONEHENGE RD,43.176827,-77.540586,,,,,,0,
1326,1326,Empire & Autumn,STATE HWY 404 & UNNAMED ST,43.184843,-77.506754,,,,,,0,
1329,1329,Empire & Culver,EMPIRE BLVD & STATE RTE 941B,43.176329,-77.556785,,,,,,0,
1330,1330,Empire & Daytona,STATE HWY 404 & DAYTONA AVE,43.181063,-77.508457,,,,,,0,
1334,1334,Empire & Plank,STATE HWY 404 & COUNTY HWY 11,43.182638,-77.507913,,,,,,0,
1335,1335,Empire & Plank,STATE HWY 404 & COUNTY HWY 11,43.182279,-77.50784,,,,,,0,
1336,1336,Empire & Empire Marina,STATE HWY 404 & COUNTY HWY 11,43.174462,-77.518885,,,,,,0,
1337,1337,Empire & Empire Marina,,43.174165,-77.518506,,,,,,0,
1340,1340,Empire & Shelford,STATE RTE 941B & SHELFORD RD,43.176559,-77.550132,,,,,,0,
1341,1341,Empire & Sunrise Plaza,STATE HWY 404 & SMITH RD,43.187258,-77.505452,,,,,,0,
1342,1342,Empire & Sydenham,,43.177094,-77.539159,,,,,,0,
1368,1368,Estes & Corrigan,ESTES ST & BUFFALO RD,43.258162,-77.61045,,,,,,0,
1376,1376,Fairport & 353 Fairport,STATE HWY 31F & PITTSFORD MANOR LN,43.104469,-77.487617,,,,,,0,
1378,1378,Fairport & Baird,STATE HWY 31F & COUNTY HWY 34,43.102172,-77.465895,,,,,,0,
1379,1379,Fairport & Baird,STATE HWY 31F & COUNTY HWY 34,43.102244,-77.465307,,,,,,0,
1380,1380,Fairport & Blossom,STATE HWY 31F & BLOSSOM LN,43.102319,-77.473928,,,,,,0,
1382,1382,Fairport & Crescent East,STATE HWY 31F & CRESCENT RD,43.102257,-77.473367,,,,,,0,
1385,1385,Fairport & Jefferson,STATE HWY 31F & COUNTY HWY 40,43.101588,-77.462207,,,,,,0,
1386,1386,Fairport & Jefferson,STATE HWY 31F & COUNTY HWY 40,43.101373,-77.462081,,,,,,0,
1387,1387,Fairport & Lincoln,,43.102635,-77.480556,,,,,,0,
1389,1389,Fairport & Marsh,STATE HWY 31F & MARSH RD,43.102606,-77.481372,,,,,,0,
1390,1390,Fairport & OConnor,STATE HWY 31F & OCONNOR RD,43.100836,-77.459238,,,,,,0,
1393,1393,St. John Fisher Connection Hub,PARKING LOT,43.112196,-77.50809,,,,,,0,
1396,1396,Fairport & Sunset,STATE HWY 31F & SUNSET TRL,43.102193,-77.468789,,,,,,0,
1397,1397,Fairport & Sunset,STATE HWY 31F & SUNSET TRL,43.102342,-77.468313,,,,,,0,
1402,1402,Farmington & Fairfax,,43.165601,-77.550927,,,,,,0,
1403,1403,Farmington & Mildorf,FARMINGTON RD & WYAND CRES,43.165526,-77.553212,,,,,,0,
1406,1406,Farmington & Winton,,43.165878,-77.544846,,,,,,0,
1412,1412,Five Mile Line & Belvedere,COUNTY HWY 18 & BELVEDERE HTS,43.128048,-77.475988,,,,,,0,
1413,1413,Five Mile Line & Belvedere,COUNTY HWY 18 & BELVEDERE HTS,43.127736,-77.475853,,,,,,0,
1414,1414,Five Mile Line & Brebeuf,COUNTY HWY 18 & BREBEUF DR,43.126606,-77.476032,,,,,,0,
1418,1418,Five Mile Line & Edgewood,COUNTY HWY 18 & EDGEWOOD DR,43.124965,-77.47607,,,,,,0,
1420,1420,Five Mile Line & Harmon,COUNTY HWY 18 & HARMON RD,43.124812,-77.476004,,,,,,0,
1425,1425,Ford & Adams,FORD ST & COUNTY HWY 13,43.14899,-77.620692,,,,,,0,
1426,1426,Ford & Adams,FORD ST & ADAMS ST,43.14867,-77.620368,,,,,,0,
1427,1427,Ford & Atkinson,FORD ST & ATKINSON ST,43.149998,-77.62039,,,,,,0,
1428,1428,Ford & Atkinson,FORD ST & BEAVER ST,43.149593,-77.620667,,,,,,0,
1430,1430,Ford & Main,BOYS CLUB PL & STATE HWY 33,43.153289,-77.620298,,,,,,0,
1431,1431,Ford & Main,,43.153658,-77.620288,,,,,,0,
1432,1432,Ford & Samuel McCree,,43.146639,-77.619985,,,,,,0,
1433,1433,Ford & Samuel McCree,FORD ST & DR SAMUEL MCCREE WAY,43.146522,-77.619676,,,,,,0,
1437,1437,Ford & Troup,FORD ST & TROUP ST,43.151388,-77.620665,,,,,,0,
1438,1438,Ford & Troup,,43.151103,-77.620418,,,,,,0,
1469,1469,Genesee & 1170 Genesee,STATE HWY 383 & ARVINE HTS,43.126604,-77.638723,,,,,,0,
1471,1471,Genesee & Aberdeen,GENESEE ST & ABERDEEN ST,43.139651,-77.636111,,,,,,0,
1472,1472,Genesee & Aldine,GENESEE ST & ALDINE ST,43.14137,-77.636112,,,,,,0,
1473,1473,Genesee & Arnett,,43.142492,-77.636164,,,,,,0,
1474,1474,Genesee & Arnett,GENESEE ST & ARNETT BLVD,43.142067,-77.635948,,,,,,0,
1476,1476,Genesee & Arvine Pk,STATE HWY 383 & ARVINE PARK,43.128184,-77.63721,,,,,,0,
1478,1478,Genesee & Barton,GENESEE ST & BARTON ST,43.132687,-77.63609,,,,,,0,
1479,1479,Genesee & Barton,GENESEE ST & BARTON ST,43.132475,-77.635947,,,,,,0,
1480,1480,Genesee & Brooks,GENESEE ST & BROOKS AVE,43.131308,-77.636082,,,,,,0,
1481,1481,Genesee & Clifton,GENESEE ST & CLIFTON ST,43.148074,-77.635975,,,,,,0,
1482,1482,Genesee & Clifton,GENESEE ST & CLIFTON ST,43.148321,-77.636157,,,,,,0,
1484,1484,Genesee & Earl,GENESEE ST & EARL ST,43.136821,-77.6359,,,,,,0,
1485,1485,Genesee & Elmdorf,GENESEE ST & ELMDORF AVE,43.136786,-77.636117,,,,,,0,
1486,1486,Genesee & Frost,GENESEE ST & FROST AVE,43.143536,-77.636166,,,,,,0,
1487,1487,Genesee & Frost,,43.143683,-77.635947,,,,,,0,
1488,1488,Genesee & Hawley,GENESEE ST & HAWLEY ST,43.140757,-77.635912,,,,,,0,
1489,1489,Genesee & Kirkland,GENESEE ST & KIRKLAND RD,43.14666,-77.636125,,,,,,0,
1490,1490,Genesee & Main,GENESEE ST & STATE HWY 33,43.14961,-77.636178,,,,,,0,
1491,1491,Genesee & Main,GENESEE ST & STATE HWY 33,43.150116,-77.635925,,,,,,0,
1492,1492,Genesee & Melrose,GENESEE ST & MELROSE ST,43.138592,-77.636094,,,,,,0,
1493,1493,Genesee & Monica,GENESEE ST & MONICA ST,43.133923,-77.636114,,,,,,0,
1494,1494,Genesee & Monica,GENESEE ST & MONICA ST,43.133726,-77.636005,,,,,,0,
1497,1497,Genesee & Sawyer,GENESEE ST & SAWYER ST,43.135137,-77.636112,,,,,,0,
1498,1498,Genesee & Shelter,GENESEE ST & SHELTER ST,43.138785,-77.636018,,,,,,0,
1499,1499,Genesee & Spruce,STATE HWY 383 & SPRUCE AVE,43.128406,-77.637328,,,,,,0,
1501,1501,Genesee & Superior,,43.144933,-77.636168,,,,,,0,
1502,1502,Genesee & Superior,GENESEE ST & SUPERIOR ST,43.14509,-77.635954,,,,,,0,
1503,1503,Genesee & Terrace,STATE HWY 383 & TERRACE PARK,43.129932,-77.63658,,,,,,0,
1506,1506,Genesee Park & 319 Genesee Park,GENESEE PARK BLVD & POST AVE,43.126265,-77.648012,,,,,,0,
1509,1509,Genesee Park & 611 Genesee Park,GENESEE PARK BLVD & POST AVE,43.129498,-77.653727,,,,,,0,
1510,1510,Genesee Park & 614 Genesee Park,GENESEE PARK BLVD & POST AVE,43.129618,-77.653577,,,,,,0,
1514,1514,Genesee Park & Brooks,GENESEE PARK BLVD & ARNETT BLVD,43.130733,-77.653549,,,,,,0,
1515,1515,Genesee Park & Brooks,GENESEE PARK BLVD & STATE HWY 204,43.130497,-77.653726,,,,,,0,
1516,1516,Genesee Park & Chili,GENESEE PARK BLVD & ARNETT BLVD,43.142588,-77.658595,,,,,,0,
1517,1517,Genesee Park & Custer,GENESEE PARK BLVD & CUSTER ST,43.126434,-77.640634,,,,,,0,
1519,1519,Genesee Park & Gillette,GENESEE PARK BLVD & GILLETTE ST,43.126376,-77.648475,,,,,,0,
1520,1520,Genesee Park & Hillendale,GENESEE PARK BLVD & HILLENDALE ST,43.134432,-77.656294,,,,,,0,
1521,1521,Genesee Park & Hillendale,GENESEE PARK BLVD & HILLENDALE ST,43.134266,-77.655976,,,,,,0,
1526,1526,Genesee Park & Margaret,GENESEE PARK BLVD & MARGARET ST,43.13206,-77.654576,,,,,,0,
1527,1527,Genesee Park & Raeburn,GENESEE PARK BLVD & MARGARET ST,43.136131,-77.657282,,,,,,0,
1528,1528,Genesee Park & Marlborough,GENESEE PARK BLVD & MARLBOROUGH RD,43.139567,-77.658189,,,,,,0,
1529,1529,Genesee Park & Marlborough,GENESEE PARK BLVD & MARLBOROUGH RD,43.139452,-77.65803,,,,,,0,
1532,1532,Genesee Park & Penhurst,GENESEE PARK BLVD & PENHURST ST,43.137765,-77.65828,,,,,,0,
1533,1533,Genesee Park & Penhurst,GENESEE PARK BLVD & PENHURST ST,43.137904,-77.658494,,,,,,0,
1534,1534,Genesee Park & Pioneer,GENESEE PARK BLVD & PIONEER ST,43.126452,-77.642556,,,,,,0,
1536,1536,Genesee Park & Raeburn,GENESEE PARK BLVD & RAEBURN AVE,43.136262,-77.657592,,,,,,0,
1540,1540,Genesee Park & Rosalind,GENESEE PARK BLVD & ROSALIND ST,43.132925,-77.655246,,,,,,0,
1541,1541,Genesee Park & Rosalind,GENESEE PARK BLVD & ROSALIND ST,43.132839,-77.654944,,,,,,0,
1542,1542,Genesee Park & Roxborough,GENESEE PARK BLVD & ROXBOROUGH RD,43.141169,-77.657983,,,,,,0,
1543,1543,Genesee Park & Roxborough,GENESEE PARK BLVD & ROXBOROUGH RD,43.141244,-77.658211,,,,,,0,
1544,1544,Genesee Park & Thurston,GENESEE PARK BLVD & THURSTON RD,43.126906,-77.650734,,,,,,0,
1545,1545,Genesee Park & Thurston,GENESEE PARK BLVD & THURSTON RD,43.127007,-77.651257,,,,,,0,
1546,1546,Genesee Park & Virginia,GENESEE PARK BLVD & VIRGINIA AVE,43.126306,-77.646517,,,,,,0,
1547,1547,Genesee Park & Virginia,GENESEE PARK BLVD & VIRGINIA AVE,43.126397,-77.646253,,,,,,0,
1548,1548,Genesee Park & Woodbine,GENESEE PARK BLVD & WOODBINE AVE,43.126421,-77.645008,,,,,,0,
1549,1549,Genesee Park & Woodbine,GENESEE PARK BLVD & WOODBINE AVE,43.126266,-77.645005,,,,,,0,
1553,1553,Glide & 1040 Glide,GLIDE ST & EMERSON ST,43.172477,-77.654241,,,,,,0,
1555,1555,Glide & 980 Glide,GLIDE ST & BERGEN ST,43.171116,-77.654061,,,,,,0,
1556,1556,Glide & Bergen,GLIDE ST & BERGEN ST,43.169882,-77.654086,,,,,,0,
1557,1557,Glide & Bergen,GLIDE ST & BERGEN ST,43.170051,-77.654236,,,,,,0,
1558,1558,Glide & Emerson,GLIDE ST & EMERSON ST,43.17366,-77.654052,,,,,,0,
1559,1559,Glide & Emerson,GLIDE ST & EMERSON ST,43.173454,-77.654239,,,,,,0,
1560,1560,Glide & Freeland,GLIDE ST & FREELAND ST,43.16629,-77.654086,,,,,,0,
1561,1561,Glide & Freeland,GLIDE ST & FREELAND ST,43.166526,-77.654235,,,,,,0,
1562,1562,Glide & Lyell,GLIDE ST & STATE HWY 31,43.164875,-77.654203,,,,,,0,
1563,1563,Glide & Otis,GLIDE ST & OTIS ST,43.168779,-77.65426,,,,,,0,
1564,1564,Glide & Otis,GLIDE ST & OTIS ST,43.168579,-77.65407,,,,,,0,
1566,1566,Goodman & Hayward,GOODMAN ST N & MAIN ST E,43.163043,-77.583206,,,,,,0,
1567,1567,Goodman & Ashwood,GOODMAN ST N & ASHWOOD DR,43.183716,-77.575981,,,,,,0,
1568,1568,Goodman & Baker,COUNTY HWY 108 & BAKER AVE,43.190751,-77.576367,,,,,,0,
1569,1569,Goodman & Baker,COUNTY HWY 108 & BAKER AVE,43.190951,-77.576627,,,,,,0,
1570,1570,Goodman & Bay,GOODMAN ST N & BAY ST,43.171187,-77.578758,,,,,,0,
1571,1571,Goodman & Bay,GOODMAN ST N & BAY ST,43.170911,-77.578702,,,,,,0,
1572,1572,Goodman & Benton,GOODMAN ST S & BENTON ST,43.136972,-77.597586,,,,,,0,
1573,1573,Goodman & Blakeslee,GOODMAN ST N & BLAKESLEE ST,43.186774,-77.576174,,,,,,0,
1574,1574,Goodman & Caroline,GOODMAN ST S & CAROLINE ST,43.138066,-77.596944,,,,,,0,
1575,1575,Goodman & Caroline,GOODMAN ST S & CAROLINE ST,43.138291,-77.596961,,,,,,0,
1576,1576,Goodman & Central Park,GOODMAN ST N & CENTRAL PARK,43.168904,-77.580006,,,,,,0,
1577,1577,Goodman & Central Park,GOODMAN ST N & CENTRAL PARK,43.168384,-77.580085,,,,,,0,
1578,1578,Goodman & Clifford,GOODMAN ST N & CLIFFORD AVE,43.176071,-77.576153,,,,,,0,
1579,1579,Goodman & Clifford,GOODMAN ST N & CLIFFORD AVE,43.176323,-77.575791,,,,,,0,
1580,1580,Goodman & Corwin,GOODMAN ST N & CORWIN AVE,43.186326,-77.576335,,,,,,0,
1581,1581,Goodman & Dix,COUNTY HWY 108 & DIX ST,43.193481,-77.576567,,,,,,0,
1582,1582,Goodman & Dix,COUNTY HWY 108 & DIX ST,43.193964,-77.576795,,,,,,0,
1583,1583,Goodman & Elmwood,GOODMAN ST S & COUNTY HWY 87,43.125658,-77.604367,,,,,,0,
1584,1584,Goodman & Elmwood,GOODMAN ST S & COUNTY HWY 87,43.12585,-77.604107,,,,,,0,
1586,1586,Goodman & Ferndale,GOODMAN ST N & FERNDALE CRES,43.166425,-77.581183,,,,,,0,
1587,1587,Goodman & Fernwood Ave,GOODMAN ST N & FERNWOOD AVE,43.179075,-77.575707,,,,,,0,
1588,1588,Goodman & Fernwood Ave,GOODMAN ST N & FERNWOOD AVE,43.179016,-77.575863,,,,,,0,
1591,1591,Goodman & Garson,GOODMAN ST N & GARSON AVE,43.164095,-77.582623,,,,,,0,
1592,1592,Goodman & Gregory Hill,GOODMAN ST S & GREGORY HILL RD,43.133634,-77.599651,,,,,,0,
1593,1593,Goodman & Hayward,Goodman St & Main St,43.162772,-77.583083,,,,,,0,
1594,1594,Goodman & Highland,GOODMAN ST S & HIGHLAND AVE,43.129947,-77.601268,,,,,,0,
1595,1595,Goodman & Highland,GOODMAN ST S & HIGHLAND AVE,43.130426,-77.601044,,,,,,0,
1596,1596,Goodman & Highland Pky,GOODMAN ST S & HIGHLAND PKWY,43.13326,-77.59974,,,,,,0,
1599,1599,Goodman & Ridge,COUNTY HWY 108 & COUNTY HWY 241,43.198215,-77.576837,,,,,,0,
1600,1600,Goodman & Keller,GOODMAN ST N & KELLER ST,43.174378,-77.577061,,,,,,0,
1601,1601,Goodman & Linden,GOODMAN ST S & LINDEN ST,43.136542,-77.59799,,,,,,0,
1604,1604,Goodman & Northland,GOODMAN ST N & NORTHLAND AVE,43.181598,-77.576027,,,,,,0,
1605,1605,Goodman & Northland,GOODMAN ST N & NORTHLAND AVE,43.181332,-77.575838,,,,,,0,
1606,1606,Goodman & Norton,GOODMAN ST N & NORTON ST,43.187772,-77.576422,,,,,,0,
1607,1607,Goodman & Norton,GOODMAN ST N & NORTON ST,43.188157,-77.576268,,,,,,0,
1610,1610,Goodman & Pennsylvania,GOODMAN ST N & PENNSYLVANIA AVE,43.166597,-77.581193,,,,,,0,
1611,1611,Goodman & Perkins,GOODMAN ST N & PERKINS AVE,43.183986,-77.576174,,,,,,0,
1612,1612,Goodman & Pinetum,GOODMAN ST S & PINETUM DR,43.132213,-77.600425,,,,,,0,
1613,1613,Goodman & Pinetum,GOODMAN ST S & PINETUM DR,43.132067,-77.600427,,,,,,0,
1615,1615,Goodman & Reynolds,GOODMAN ST N & REYNOLDS AVE,43.189241,-77.576297,,,,,,0,
1616,1616,Goodman & Reynolds,COUNTY HWY 108 & REYNOLDS AVE,43.189407,-77.576546,,,,,,0,
1617,1617,Goodman & Rocket,GOODMAN ST N & ROCKET ST,43.17381,-77.577169,,,,,,0,
1618,1618,Goodman & Rockingham,GOODMAN ST S & ROCKINGHAM ST,43.134648,-77.599074,,,,,,0,
1619,1619,Goodman & Rockingham,GOODMAN ST S & ROCKINGHAM ST,43.134379,-77.599084,,,,,,0,
1622,1622,Goodman & Ridge,COUNTY HWY 108 & COUNTY HWY 241,43.198141,-77.577106,,,,,,0,
1623,1623,Goodman & Webster,GOODMAN ST N & GARSON AVE,43.164131,-77.58242,,,,,,0,
1649,1649,Hamlin Center & Lake,STATE HWY 18 & STATE HWY 19,43.295373,-77.92038,,,,,,0,
1691,1691,Howard & Chili,STATE RTE 940L & COUNTY HWY 164,43.132161,-77.690863,,,,,,0,
1715,1715,Hudson & 2057 Hudson,COUNTY HWY 112 & SCHOFIELD RD,43.205529,-77.600827,,,,,,0,
1716,1716,Hudson & 2066 Hudson,COUNTY HWY 112 & SCHOFIELD RD,43.206109,-77.600589,,,,,,0,
1717,1717,Hudson & Alphonse,HUDSON AVE & ALPHONSE ST,43.176216,-77.598785,,,,,,0,
1718,1718,Hudson & Avenue D,HUDSON AVE & AVENUE D,43.180721,-77.5991,,,,,,0,
1719,1719,Hudson & Avenue D,HUDSON AVE & AVENUE D,43.181004,-77.599272,,,,,,0,
1721,1721,Hudson & Bernard,HUDSON AVE & BERNARD ST,43.177162,-77.598838,,,,,,0,
1722,1722,Hudson & Bernard,HUDSON AVE & BERNARD ST,43.17737,-77.599025,,,,,,0,
1724,1724,Hudson & Cleon,HUDSON AVE & CLEON ST,43.183121,-77.599274,,,,,,0,
1725,1725,Hudson & Cleveland,HUDSON AVE & CLEVELAND ST,43.170706,-77.600768,,,,,,0,
1726,1726,Hudson & Clifford,HUDSON AVE & CLIFFORD AVE,43.17511,-77.59899,,,,,,0,
1728,1728,Hudson & Dunn,HUDSON AVE & DUNN ST,43.190921,-77.599708,,,,,,0,
1729,1729,Hudson & Dunn,HUDSON AVE & DUNN ST,43.190806,-77.599879,,,,,,0,
1731,1731,Hudson & Eagle Ridge,COUNTY HWY 112 & EAGLE RIDGE CIR,43.199502,-77.60024,,,,,,0,
1732,1732,Hudson & Fairbanks,HUDSON AVE & FAIRBANKS ST,43.182382,-77.599313,,,,,,0,
1737,1737,Hudson & Hill Court,COUNTY HWY 112 & HILL COURT CIR,43.19803,-77.600156,,,,,,0,
1738,1738,Hudson & Hill Court,COUNTY HWY 112 & HILL COURT CIR,43.198063,-77.60036,,,,,,0,
1739,1739,Hudson & Holland,HUDSON AVE & HOLLAND ST,43.169254,-77.601621,,,,,,0,
1740,1740,Hudson & Kelly,,43.167776,-77.602077,,,,,,0,
1741,1741,Hudson & Kosciusko,HUDSON AVE & KOSCIUSKO ST,43.185053,-77.599353,,,,,,0,
1742,1742,Hudson & Long Acre,COUNTY HWY 112 & EAGLE RIDGE CIR,43.200116,-77.600488,,,,,,0,
1743,1743,Hudson & Mark,HUDSON AVE & MARK ST,43.173472,-77.599517,,,,,,0,
1744,1744,Hudson & Nash,HUDSON AVE & NASH ST,43.167141,-77.601958,,,,,,0,
1745,1745,Hudson & Nester,HUDSON AVE & NESTER ST,43.189368,-77.599791,,,,,,0,
1746,1746,Hudson & Nester,HUDSON AVE & NESTER ST,43.189165,-77.599594,,,,,,0,
1747,1747,Hudson & North,HUDSON AVE & HARRISON ST,43.164184,-77.601862,,,,,,0,
1748,1748,Hudson & North,,43.163503,-77.602041,,,,,,0,
1749,1749,Hudson & Norton,HUDSON AVE & NORTON ST,43.187001,-77.599643,,,,,,0,
1750,1750,Hudson & Norton,,43.186519,-77.599446,,,,,,0,
1751,1751,Hudson & Peckham,HUDSON AVE & PECKHAM ST,43.185753,-77.599581,,,,,,0,
1752,1752,Hudson & Ridge,COUNTY HWY 112 & COUNTY HWY 241,43.196535,-77.600258,,,,,,0,
1753,1753,Hudson & Ridge Hudson Plaza,COUNTY HWY 112 & COUNTY HWY 241,43.195828,-77.599957,,,,,,0,
1754,1754,Hudson & Seneca Manor,COUNTY HWY 112 & SENECA MANOR DR,43.193969,-77.600142,,,,,,0,
1756,1756,Hudson & Upper Falls,HUDSON AVE & UPPER FALLS BLVD,43.170971,-77.600814,,,,,,0,
1757,1757,Hudson & Vose,HUDSON AVE & VOSE ST,43.172946,-77.599915,,,,,,0,
1759,1759,Hudson & Walmart,HUDSON AVE & WALMART HUDSON CIR,43.194371,-77.599911,,,,,,0,
1760,1760,Hudson & Weaver,HUDSON AVE & WEAVER ST,43.184186,-77.599472,,,,,,0,
1763,1763,Hudson & Wilson,HUDSON AVE & WILSON ST,43.168695,-77.601582,,,,,,0,
1764,1764,Hudson Ridge Towers,SENECA MANOR DR,43.193133,-77.603074,,,,,,0,
1765,1765,Humboldt & 104 Humboldt,HUMBOLDT ST & UNNAMED ST,43.154787,-77.565689,,,,,,0,
1766,1766,Humboldt & 40 Humboldt,HUMBOLDT ST & UNNAMED ST,43.154744,-77.565792,,,,,,0,
1768,1768,Humboldt & Carlson,HUMBOLDT ST & CARLSON RD,43.15378,-77.558961,,,,,,0,
1769,1769,Humboldt & Coventry,HUMBOLDT ST & COVENTRY AVE,43.154193,-77.563935,,,,,,0,
1770,1770,Humboldt & Coventry,HUMBOLDT ST & COVENTRY AVE,43.154196,-77.563478,,,,,,0,
1771,1771,Humboldt & Culver,HUMBOLDT ST & CULVER RD,43.155397,-77.567806,,,,,,0,
1775,1775,Humboldt & Floverton,HUMBOLDT ST & FLOVERTON ST,43.153412,-77.553969,,,,,,0,
1776,1776,Humboldt & Marion,HUMBOLDT ST & MARION ST,43.153803,-77.555728,,,,,,0,
1782,1782,Humboldt & Winton,HUMBOLDT ST & WINTON RD N,43.152706,-77.551722,,,,,,0,
1783,1783,Humboldt & Winton,HUMBOLDT ST & WINTON RD N,43.152899,-77.551763,,,,,,0,
1784,1784,Hylan Drive Connection Hub (Mall),COUNTY HWY 263 & UNNAMED ST,43.08327,-77.629816,,,,,,0,
1785,1785,Hylan Drive Connection Hub (Wegmans),COUNTY HWY 263 & UNNAMED ST,43.083481,-77.629503,,,,,,0,
1801,1801,Skyview Connection Hub,PARKING LOT,43.196796,-77.569394,,,,,,0,
1803,1803,Irondequoit Plaza Connection Hub,,43.20895,-77.601046,,,,,,0,
1806,1806,Jay & Ames,JAY ST & AMES ST,43.159339,-77.643815,,,,,,0,
1807,1807,Jay & Ames,JAY ST & AMES ST,43.159296,-77.643709,,,,,,0,
1810,1810,Jay & Child,JAY ST & CHILD ST,43.159371,-77.638289,,,,,,0,
1811,1811,Jay & Colvin,JAY ST & COLVIN ST,43.15937,-77.641215,,,,,,0,
1812,1812,Jay & Colvin,JAY ST & COLVIN ST,43.159326,-77.641441,,,,,,0,
1814,1814,Jay & Glide,JAY ST & GLIDE ST,43.159387,-77.653998,,,,,,0,
1815,1815,Jay & Glide,JAY ST & GLIDE ST,43.159342,-77.653766,,,,,,0,
1816,1816,Jay & Grape,JAY ST & GRAPE ST,43.159343,-77.629388,,,,,,0,
1817,1817,Jay & Hague,JAY ST & HAGUE ST,43.159402,-77.64654,,,,,,0,
1818,1818,Jay & Hague,JAY ST & HAGUE ST,43.159321,-77.647158,,,,,,0,
1819,1819,Jay & Halford,JAY ST & HALFORD ST,43.15934,-77.657128,,,,,,0,
1825,1825,Jay & Mt Read,JAY ST & FAIRGATE ST,43.159451,-77.658995,,,,,,0,
1826,1826,Jay & Orchard,,43.159469,-77.634336,,,,,,0,
1827,1827,Jay & Orchard,JAY ST & ORCHARD ST,43.159367,-77.634869,,,,,,0,
1828,1828,Jay & Pool,JAY ST & POOL ST,43.159397,-77.650444,,,,,,0,
1829,1829,Jay & Pool,JAY ST & POOL ST,43.159324,-77.650896,,,,,,0,
1830,1830,Jay & Saxton,JAY ST & SAXTON ST,43.159363,-77.632063,,,,,,0,
1831,1831,Jay & Saxton,,43.159458,-77.632604,,,,,,0,
1833,1833,Jay & Walnut,JAY ST & WALNUT ST,43.159354,-77.630955,,,,,,0,
1834,1834,Jay & Walnut,,43.159458,-77.630625,,,,,,0,
1835,1835,Jay & Wetmore,JAY ST & HALFORD ST,43.159449,-77.656925,,,,,,0,
1836,1836,Jay & Whitney,JAY ST & WHITNEY ST,43.159471,-77.636594,,,,,,0,
1843,1843,Jefferson & Champlain,,43.144834,-77.629078,,,,,,0,
1844,1844,Jefferson & Champlain,JEFFERSON AVE & CHAMPLAIN ST,43.145038,-77.629,,,,,,0,
1845,1845,Jefferson & Columbia,,43.1417,-77.629013,,,,,,0,
1846,1846,Jefferson & Columbia,JEFFERSON AVE & COLUMBIA AVE,43.141504,-77.628945,,,,,,0,
1848,1848,Jefferson & Flint,,43.139972,-77.629024,,,,,,0,
1849,1849,Jefferson & Flint,JEFFERSON AVE & FLINT ST,43.139792,-77.628872,,,,,,0,
1850,1850,Jefferson & Frost,546 JEFFERSON AVE & RUFF AL,43.144041,-77.628922,,,,,,0,
1851,1851,Jefferson & Frost,JEFFERSON AVE & FROST AVE,43.143899,-77.629062,,,,,,0,
1852,1852,Jefferson & Magnolia,JEFFERSON AVE & MAGNOLIA ST,43.137739,-77.628871,,,,,,0,
1853,1853,Jefferson & Magnolia,,43.137984,-77.629022,,,,,,0,
1854,1854,Jefferson & Samuel McCree,JEFFERSON AVE & DR SAMUEL MCCREE WAY,43.146884,-77.628938,,,,,,0,
1855,1855,Jefferson & Seward,JEFFERSON AVE & SEWARD ST,43.136247,-77.628877,,,,,,0,
1856,1856,Jefferson & Seward,,43.136561,-77.629015,,,,,,0,
1866,1866,Jefferson & 755 Jefferson,STATE HWY 252 & MANUFACTURERS BLVD,43.087244,-77.622395,,,,,,0,
1867,1867,Jefferson & 755 Jefferson,STATE HWY 252 & CONNECTING RD,43.08695,-77.621695,,,,,,0,
1869,1869,Jefferson & Clay,STATE HWY 252 & CONNECTING RD,43.087295,-77.616689,,,,,,0,
1870,1870,Jefferson & Clay,STATE HWY 252 & CLAY RD,43.086961,-77.617738,,,,,,0,
1871,1871,Jefferson & E Henrietta,STATE HWY 252 & STATE HWY 15A,43.087374,-77.610693,,,,,,0,
1874,1874,Jefferson & E Henrietta,STATE HWY 252 & CONNECTING RD,43.087029,-77.607362,,,,,,0,
1878,1878,Jefferson & Ridgeland,STATE HWY 252 & RIDGELAND RD,43.087305,-77.601985,,,,,,0,
1880,1880,Jefferson & Saginaw Plaza,STATE HWY 252 & JEFFERSON RD,43.086914,-77.593091,,,,,,0,
1884,1884,Jewish Home,DRIVEWAY & SOUTH TOWNE PLZ,43.10622,-77.578982,,,,,,0,
1900,1900,Joseph & Avenue D,JOSEPH AVE & AVENUE D,43.180482,-77.607882,,,,,,0,
1901,1901,Joseph & Avenue D,,43.180747,-77.60807,,,,,,0,
1902,1902,Joseph & Baden,JOSEPH AVE & BADEN ST,43.168456,-77.607247,,,,,,0,
1906,1906,Joseph & Central,JOSEPH AVE & CENTRAL AVE,43.162931,-77.607046,,,,,,0,
1907,1907,Joseph & Central,JOSEPH AVE & CENTRAL AVE,43.163561,-77.606895,,,,,,0,
1908,1908,Joseph & Clifford,JOSEPH AVE & CLIFFORD AVE,43.174969,-77.607504,,,,,,0,
1909,1909,Joseph & Clifford,JOSEPH AVE & CLIFFORD AVE,43.175216,-77.60766,,,,,,0,
1912,1912,Joseph & Kelly,JOSEPH AVE & KELLY ST,43.167163,-77.60714,,,,,,0,
1913,1913,Joseph & Laser,JOSEPH AVE & LASER ST,43.182264,-77.607994,,,,,,0,
1915,1915,Joseph & Norton,JOSEPH AVE & NORTON ST,43.186234,-77.608288,,,,,,0,
1917,1917,Joseph & Rauber,JOSEPH AVE & RAUBER ST,43.172796,-77.607602,,,,,,0,
1918,1918,Joseph & Rauber,JOSEPH AVE & WILLIAM WARFIELD DR,43.172439,-77.607438,,,,,,0,
1920,1920,Joseph & Upper Falls,JOSEPH AVE & UPPER FALLS BLVD,43.171345,-77.607558,,,,,,0,
1921,1921,Joseph & Upper Falls,JOSEPH AVE & UPPER FALLS BLVD,43.170903,-77.607405,,,,,,0,
1922,1922,Joseph & Vienna,JOSEPH AVE & VIENNA ST,43.16952,-77.607443,,,,,,0,
1924,1924,Joseph & Ward,JOSEPH AVE & WARD ST,43.165462,-77.607029,,,,,,0,
1925,1925,Joseph & Ward,JOSEPH AVE & WARD ST,43.165218,-77.607153,,,,,,0,
1926,1926,Joseph & Weaver,JOSEPH AVE & WEAVER ST,43.183682,-77.60813,,,,,,0,
1927,1927,Joseph & Wilkins,,43.178437,-77.607844,,,,,,0,
1928,1928,Joseph & Wilkins,JOSEPH AVE & WILKINS ST,43.178254,-77.607761,,,,,,0,
1929,1929,Joseph & Wolfert,JOSEPH AVE & LANG ST,43.184908,-77.608349,,,,,,0,
1930,1930,Joseph & Zimbrich,JOSEPH AVE & ZIMBRICH ST,43.183249,-77.608214,,,,,,0,
1958,1958,Lac De Ville & Lac Kine N,LAC DE VILLE BLVD & LACKINE DR,43.117806,-77.590794,,,,,,0,
1959,1959,Lac De Ville & Lac Kine S,LAC DE VILLE BLVD & LACKINE DR,43.116022,-77.591977,,,,,,0,
1960,1960,Lac De Ville & Rue De Ville,LAC DE VILLE BLVD & RUE DE VL,43.121397,-77.590538,,,,,,0,
1962,1962,LaGrange & 110 La Grange,LAGRANGE AVE & JUGHANDLE,43.185852,-77.65319,,,,,,0,
1964,1964,LaGrange & Arborwood Cres,LAGRANGE AVE & ARBORWOOD LN,43.189365,-77.65318,,,,,,0,
1966,1966,LaGrange & Driving Park,LAGRANGE AVE & ARBORWOOD CRES,43.183536,-77.653167,,,,,,0,
1968,1968,LaGrange & Electric,LAGRANGE AVE & ELECTRIC AVE,43.190593,-77.65317,,,,,,0,
1970,1970,LaGrange & Ridgeway,,43.193723,-77.653163,,,,,,0,
1973,1973,Lake & 3877 Lake,LAKE AVE & DENISE RD,43.241093,-77.6209,,,,,,0,
1974,1974,Lake & 4138 Lake,LAKE AVE & UNNAMED ST,43.246075,-77.617239,,,,,,0,
1975,1975,Lake & Alameda,,43.187186,-77.630656,,,,,,0,
1976,1976,Lake & Ambrose,,43.167736,-77.625381,,,,,,0,
1977,1977,Lake & Birr,,43.186047,-77.630966,,,,,,0,
1979,1979,Lake & Boxart,LAKE AVE & BOXART ST,43.22618,-77.626568,,,,,,0,
1980,1980,Lake & Britton,LAKE AVE & COUNTY HWY 101,43.23537,-77.624149,,,,,,0,
1981,1981,Charlotte Middle School,LAKE AVE & UNNAMED ST,43.245849,-77.617692,,,,,,0,
1982,1982,Lake & Charlotte River Homes,LAKE AVE & UNNAMED ST,43.255151,-77.610769,,,,,,0,
1984,1984,Lake & Cheltenham,LAKE AVE & CHELTENHAM RD,43.221416,-77.627941,,,,,,0,
1986,1986,Lake & Clay,,43.191227,-77.629757,,,,,,0,
1987,1987,Lake & Corrigan,LAKE AVE & CORRIGAN ST,43.257113,-77.60942,,,,,,0,
1989,1989,Lake & Denise,LAKE AVE & DENISE RD,43.241244,-77.620485,,,,,,0,
1990,1990,Lake & Driving Park,,43.18063,-77.631987,,,,,,0,
1991,1991,Lake & opp Selye,,43.181532,-77.631557,,,,,,0,
1995,1995,Lake & Emerson,STATE RTE 940M & EMERSON ST,43.173652,-77.629208,,,,,,0,
1996,1996,Lake & Emerson,,43.173857,-77.629024,,,,,,0,
1997,1997,Lake & Flower City,,43.192515,-77.629302,,,,,,0,
1998,1998,Lake & Flower City,,43.192872,-77.629382,,,,,,0,
1999,1999,Lake & Freemont,LAKE AVE & FREEMONT RD,43.232857,-77.625301,,,,,,0,
2004,2004,Lake & Grassmere,LAKE AVE & GRASSMERE PARK,43.237373,-77.623265,,,,,,0,
2005,2005,Lake & Hewitt,LAKE AVE & HEWITT ST,43.244381,-77.618249,,,,,,0,
2006,2006,Lake & Hincher,LAKE AVE & HINCHER ST,43.256748,-77.609878,,,,,,0,
2007,2007,Lake & Holy Cross Church,,43.253036,-77.612582,,,,,,0,
2009,2009,Lake & Holy Sepulchre Cemetery Ent,LAKE AVE & ST BERNARDS CIR,43.213717,-77.629946,,,,,,0,
2010,2010,Lake & Holy Sepuchre Cemetery N Ent,LAKE AVE & ST BERNARDS CIR,43.213229,-77.629708,,,,,,0,
2011,2011,Lake & Jones,,43.167563,-77.625646,,,,,,0,
2012,2012,Lake & Kemphurst,LAKE AVE & KEMPHURST RD,43.232553,-77.625261,,,,,,0,
2015,2015,Lake & Lake Tower Apts,STATE RTE 940M & PHELPS AVE,43.170549,-77.627617,,,,,,0,
2016,2016,Lake & Lake Vista Apts,,43.24014,-77.621315,,,,,,0,
2017,2017,Lake & Lake Vista Apts,LAKE AVE & LAKE VISTA CT,43.240142,-77.621532,,,,,,0,
2018,2018,Lake & Lakeland,LAKE AVE & LAKELAND AVE,43.25591,-77.610447,,,,,,0,
2019,2019,Lake & 1024 Lake Ave,STATE RTE 940M & LAKEVIEW PARK,43.183976,-77.631232,,,,,,0,
2021,2021,Lake & Latta,LAKE AVE & LATTA RD,43.251539,-77.61336,,,,,,0,
2022,2022,Lake & Latta,LAKE AVE & LATTA RD,43.251886,-77.613388,,,,,,0,
2025,2025,Lake & Lexington,,43.178926,-77.631365,,,,,,0,
2026,2026,Lake & Lexington,STATE RTE 940M & LEXINGTON AVE,43.178877,-77.63174,,,,,,0,
2027,2027,Lake & Lorimer,STATE RTE 940M & LORIMER ST,43.169125,-77.626832,,,,,,0,
2028,2028,Lake & Lorimer,,43.169267,-77.626542,,,,,,0,
2030,2030,Lake & Lot 18 Kodak,LAKE AVE & REDWOOD RD,43.197321,-77.627978,,,,,,0,
2031,2031,Lake & Lot 18 Kodak,LAKE AVE & REDWOOD RD,43.196816,-77.628377,,,,,,0,
2033,2033,Lake & Lyell,,43.164864,-77.623618,,,,,,0,
2035,2035,Lake & Maplewood,,43.202177,-77.62817,,,,,,0,
2036,2036,Lake & Maplewood,,43.201847,-77.627738,,,,,,0,
2037,2037,Lake & Merrill,LAKE AVE & MERRILL ST,43.204966,-77.628884,,,,,,0,
2038,2038,Lake & Merrill,,43.204669,-77.628503,,,,,,0,
2040,2040,Lake & Nazareth Academy,STATE RTE 940M & ELDORADO PL,43.183485,-77.631631,,,,,,0,
2043,2043,Lake & Lake Ontario State Pky,4351 LAKE AVE & WB LAKE ONTARIO STATE PKWY,43.249885,-77.614765,,,,,,0,
2044,2044,Lake & Petten,,43.247044,-77.616585,,,,,,0,
2045,2045,Lake & Phelps,STATE RTE 940M & PHELPS AVE,43.1719,-77.628351,,,,,,0,
2046,2046,Lake & Phelps,,43.171612,-77.627808,,,,,,0,
2048,2048,Lake & Railroad,STATE HWY 259 & POLLARD AVE,43.289742,-77.792944,,,,,,0,
2049,2049,Lake & Ravine,STATE RTE 940M & RAVINE AVE,43.175961,-77.63039,,,,,,0,
2050,2050,Lake & Ravine,,43.175576,-77.629842,,,,,,0,
2051,2051,Lake & Redwood,,43.195793,-77.628328,,,,,,0,
2052,2052,Lake & Revere,LAKE AVE & REVERE ST,43.227517,-77.626463,,,,,,0,
2053,2053,Lake & Revere,LAKE AVE & REVERE ST,43.227788,-77.626699,,,,,,0,
2054,2054,Lake & Ridge,LAKE AVE & LAPHAM ST,43.195218,-77.628814,,,,,,0,
2055,2055,Lake & Ridge,STATE RTE 940M & STATE HWY 104,43.19424,-77.628736,,,,,,0,
2056,2056,Lake & Ridgeway,STATE RTE 940M & RIDGEWAY AVE,43.193539,-77.629245,,,,,,0,
2057,2057,Lake & Ridgeway,,43.193647,-77.62888,,,,,,0,
2058,2058,Lake & River,LAKE AVE & RIVER ST,43.243847,-77.618748,,,,,,0,
2059,2059,Lake & Riverside,,43.190789,-77.62962,,,,,,0,
2060,2060,Lake & Riverside Cemetery,LAKE AVE & ST BERNARDS CIR,43.216858,-77.62963,,,,,,0,
2061,2061,Lake & Riverside Cemetary,LAKE AVE & ST BERNARDS CIR,43.217191,-77.629768,,,,,,0,
2064,2064,Lake & Rose,,43.187228,-77.630415,,,,,,0,
2065,2065,Lake & Seneca,,43.189313,-77.629911,,,,,,0,
2066,2066,Lake & Seneca,,43.18866,-77.630366,,,,,,0,
2067,2067,Lake & St Bernards Park Apts,LAKE AVE & ST BERNARDS CIR,43.210357,-77.62997,,,,,,0,
2068,2068,Lake & St Bernards Park Apts,LAKE AVE & ST BERNARDS CIR,43.208166,-77.629524,,,,,,0,
2069,2069,Lake & St Bernards Park Apts,LAKE AVE & ST BERNARDS CIR,43.209478,-77.629747,,,,,,0,
2070,2070,Lake & St Bernards Park Apts,LAKE AVE & ST BERNARDS CIR,43.209175,-77.629947,,,,,,0,
2072,2072,Lake & Stonewood,,43.231073,-77.626195,,,,,,0,
2073,2073,Lake & Stonewood,LAKE AVE & STONEWOOD AVE,43.230631,-77.626099,,,,,,0,
2075,2075,Lake & Stutson,LAKE AVE & STUTSON ST,43.250539,-77.614068,,,,,,0,
2077,2077,Lake & Tiernan,LAKE AVE & TIERNAN ST,43.235025,-77.624105,,,,,,0,
2078,2078,Lake & Upton,LAKE AVE & UPTON PL,43.248937,-77.615209,,,,,,0,
2079,2079,Lake & White,,43.165791,-77.623952,,,,,,0,
2080,2080,Lake & White,,43.165573,-77.624172,,,,,,0,
2083,2083,Lake & Wyndham,LAKE AVE & WYNDHAM RD W,43.222421,-77.627697,,,,,,0,
2084,2084,Lake & Wyndham,LAKE AVE & WYNDHAM RD W,43.222227,-77.62758,,,,,,0,
2085,2085,Lake & Yarker,LAKE AVE & YARKER AVE,43.236615,-77.623401,,,,,,0,
2088,2088,Landing & Cloverland,LANDING RD N & CLOVERLAND DR,43.143291,-77.528549,,,,,,0,
2090,2090,Landing & Dorking,LANDING RD N & DORKING RD,43.141673,-77.529575,,,,,,0,
2091,2091,Landing & Dorking,,43.141583,-77.529526,,,,,,0,
2093,2093,Landing & Klink,LANDING RD N & KLINK RD,43.144816,-77.528298,,,,,,0,
2094,2094,Landing & Klink,LANDING RD N & KLINK RD,43.144951,-77.528423,,,,,,0,
2098,2098,Landing & Richs Dugway,LANDING RD N & HARTFELD DR,43.147562,-77.528302,,,,,,0,
2099,2099,Landing & Richs Dugway,LANDING RD N & HARTFELD DR,43.147288,-77.528149,,,,,,0,
2105,2105,Latta & Brandy Brook,STATE HWY 18 & BRANDY BROOK LN,43.253243,-77.706385,,,,,,0,
2109,2109,Latta & Flynn,STATE HWY 18 & FLYNN RD,43.253381,-77.715361,,,,,,0,
2110,2110,Latta & Flynn,STATE HWY 18 & FLYNN RD,43.253178,-77.715843,,,,,,0,
2114,2114,Latta & Kirk,STATE HWY 18 & COUNTY HWY 262,43.252866,-77.677985,,,,,,0,
2115,2115,Latta & Kirk,STATE HWY 18 & COUNTY HWY 262,43.253021,-77.677428,,,,,,0,
2117,2117,Latta & Long Pond,STATE HWY 18 & COUNTY HWY 136,43.252917,-77.69741,,,,,,0,
2118,2118,Latta & Long Pond,STATE HWY 18 & COUNTY HWY 136,43.253133,-77.697378,,,,,,0,
2119,2119,Latta & Mahlon,STATE HWY 18 & COUNTY HWY 136,43.252791,-77.669715,,,,,,0,
2120,2120,Latta & Mahlon,STATE HWY 18 & COUNTY HWY 136,43.252987,-77.669937,,,,,,0,
2121,2121,Latta & Manitou,STATE HWY 18 & STATE HWY 261,43.254017,-77.750109,,,,,,0,
2122,2122,Latta & Manitou,STATE HWY 18 & STATE HWY 261,43.253824,-77.749245,,,,,,0,
2123,2123,Latta & N Greece,STATE HWY 18 & COUNTY HWY 144,43.253523,-77.733001,,,,,,0,
2124,2124,Latta & N Greece,STATE HWY 18 & COUNTY HWY 144,43.253704,-77.732736,,,,,,0,
2127,2127,Latta & Torrey Pines,STATE HWY 18 & TORREY PINE DR,43.253042,-77.706935,,,,,,0,
2128,2128,Latta & W Bend,STATE HWY 18 & W BEND DR,43.253064,-77.687734,,,,,,0,
2129,2129,Latta & W Bend,STATE HWY 18 & W BEND DR,43.252902,-77.688056,,,,,,0,
2154,2154,Lexington & Delphi,LEXINGTON AVE & UNNAMED ST,43.179304,-77.65522,,,,,,0,
2162,2162,Lexington & Mt Read,LEXINGTON AVE & MOUNT READ BLVD,43.179333,-77.660873,,,,,,0,
2163,2163,Lexington & Mt Read,LEXINGTON AVE & MOUNT READ BLVD,43.179309,-77.658189,,,,,,0,
2171,2171,Lincoln & 114 Lincoln,LINCOLN AVE & RAMP,43.148344,-77.655864,,,,,,0,
2175,2175,Lincoln & Chili,LINCOLN AVE,43.14443,-77.655735,,,,,,0,
2176,2176,Lincoln & Chili,LINCOLN AVE & CEDAR PL,43.143818,-77.65587,,,,,,0,
2180,2180,Lincoln & Forbes,LINCOLN AVE & FORBES ST,43.146708,-77.65565,,,,,,0,
2186,2186,Lincoln & West,LINCOLN AVE & WEST AVE,43.149847,-77.655684,,,,,,0,
2187,2187,Lincoln & Wilbur,LINCOLN AVE & WILBUR ST,43.145879,-77.655873,,,,,,0,
2198,2198,Linden & Bluff,COUNTY HWY 15 & BLUFF DR,43.120563,-77.478486,,,,,,0,
2199,2199,Linden & DePaul,COUNTY HWY 15 & DEPAUL DR,43.119609,-77.48268,,,,,,0,
2200,2200,Linden & De Paul,COUNTY HWY 15 & DEPAUL DR,43.119712,-77.482628,,,,,,0,
2208,2208,Linden & Washington,COUNTY HWY 15 & STATE HWY 153,43.119216,-77.485461,,,,,,0,
2229,2229,Long Pond & 2137 Long Pond,COUNTY HWY 136 & MORNINGSTAR DR,43.170723,-77.701697,,,,,,0,
2231,2231,Long Pond & Auburn,COUNTY HWY 136 & AUBURN AVE,43.175722,-77.70153,,,,,,0,
2234,2234,Long Pond & Canal Landing,,43.185192,-77.701388,,,,,,0,
2235,2235,Long Pond & Canal Landing,COUNTY HWY 136 & CANAL LANDING BLVD,43.184776,-77.701737,,,,,,0,
2240,2240,Long Pond & Gates Greece Townline,COUNTY HWY 136 & GATES GREECE TOWNLINE RD,43.179625,-77.701692,,,,,,0,
2241,2241,Long Pond & Holmes,COUNTY HWY 136 & HOLMES RD,43.201957,-77.698056,,,,,,0,
2242,2242,Long Pond & Ingress,COUNTY HWY 136 & INGRESS PARK,43.179232,-77.701419,,,,,,0,
2244,2244,Long Pond & Kentucky,COUNTY HWY 136 & KENTUCKY AVE,43.172213,-77.701481,,,,,,0,
2249,2249,Long Pond & Norwood,COUNTY HWY 136 & NORWOOD AVE,43.175774,-77.701688,,,,,,0,
2250,2250,Long Pond & Park Ridge N Ent,COUNTY HWY 136 & PARK RDG,43.19454,-77.701543,,,,,,0,
2251,2251,Long Pond & Park Ridge S Ent,COUNTY HWY 136 & PARK RDG,43.190057,-77.701617,,,,,,0,
2253,2253,Long Pond & Red Rock,COUNTY HWY 136 & RED ROCK RD,43.202466,-77.697975,,,,,,0,
2254,2254,Long Pond & Ridgeway,COUNTY HWY 136 & RED ROCK RD,43.187102,-77.701632,,,,,,0,
2255,2255,Long Pond & Ridgeway,COUNTY HWY 136 & COUNTY HWY 111,43.186708,-77.701372,,,,,,0,
2257,2257,Long Pond & Straub,COUNTY HWY 136 & STRAUB RD,43.19756,-77.701221,,,,,,0,
2258,2258,Long Pond & Straub,COUNTY HWY 136 & STRAUB RD,43.197976,-77.70134,,,,,,0,
2264,2264,Long Pond & Westside Manor,COUNTY HWY 136 & WALDORF AVE,43.200737,-77.699322,,,,,,0,
2267,2267,Lyell & 1848 Lyell,STATE HWY 31 & ALVANAR RD,43.164797,-77.675385,,,,,,0,
2277,2277,Lyell & Adirondack,STATE HWY 31 & ADIRONDACK ST,43.164611,-77.66899,,,,,,0,
2278,2278,Lyell & Adirondack,STATE HWY 31 & ADIRONDACK ST,43.164754,-77.668136,,,,,,0,
2279,2279,Lyell & Alvanar,STATE HWY 31 & ALVANAR RD,43.164647,-77.675132,,,,,,0,
2280,2280,Lyell & Austin,STATE HWY 31 & AUSTIN ST,43.164716,-77.643146,,,,,,0,
2281,2281,Lyell & Avery,STATE HWY 31 & AVERY ST,43.164563,-77.650511,,,,,,0,
2282,2282,Lyell & Avery,STATE HWY 31 & AVERY ST,43.164711,-77.64994,,,,,,0,
2283,2283,Lyell & Belknap,STATE HWY 31 & BELKNAP ST,43.164738,-77.661386,,,,,,0,
2284,2284,Lyell & Belknap,STATE HWY 31 & BELKNAP ST,43.164565,-77.661962,,,,,,0,
2285,2285,Lyell & Burrows,STATE HWY 31 & BURROWS ST,43.164714,-77.647771,,,,,,0,
2287,2287,Lyell & Calihan,STATE HWY 31 & CALIHAN PARK,43.164572,-77.643524,,,,,,0,
2288,2288,Lyell & Child,STATE HWY 31 & CAMERON ST,43.164698,-77.638757,,,,,,0,
2291,2291,Lyell & Child,STATE HWY 31 & CHILD ST,43.164573,-77.638199,,,,,,0,
2294,2294,Lyell & Dewey,LYELL AVE & DEWEY AVE,43.164582,-77.632677,,,,,,0,
2295,2295,Lyell & Dewey,LYELL AVE & DEWEY AVE,43.164714,-77.632276,,,,,,0,
2299,2299,Lyell & Gates,STATE HWY 31 & GATES ST,43.164607,-77.666372,,,,,,0,
2300,2300,Lyell & Glide,STATE HWY 31 & GLIDE ST,43.164565,-77.65431,,,,,,0,
2301,2301,Lyell & Glide,,43.164696,-77.653896,,,,,,0,
2303,2303,Lyell & Grenville,STATE HWY 31 & GRENVILLE RD,43.164757,-77.670867,,,,,,0,
2304,2304,Lyell & Hague,STATE HWY 31 & HAGUE ST,43.164547,-77.646753,,,,,,0,
2305,2305,Lyell & Harcourt,STATE HWY 31 & HARCOURT RD,43.164641,-77.672704,,,,,,0,
2311,2311,Lyell & Lake State,LYELL AVE & STATE ST,43.164611,-77.623988,,,,,,0,
2312,2312,Lyell & Lake State,LYELL AVE & STATE ST,43.16473,-77.624161,,,,,,0,
2314,2314,Lyell & Lee,STATE HWY 31 & COUNTY HWY 154,43.164816,-77.680421,,,,,,0,
2315,2315,Lyell & Lee Ext,STATE HWY 31 & LEE ROAD EXT,43.164678,-77.680291,,,,,,0,
2316,2316,Lyell & Broad,STATE HWY 31 & LIKLY ALY,43.164728,-77.63476,,,,,,0,
2317,2317,Lyell & Lombard,STATE HWY 31 & LOMBARD ST,43.164744,-77.666638,,,,,,0,
2321,2321,Lyell & McNaughton,STATE HWY 31 & MCNAUGHTON ST,43.164721,-77.651317,,,,,,0,
2322,2322,Lyell & McNaughton,STATE HWY 31 & MCNAUGHTON ST,43.164558,-77.65148,,,,,,0,
2323,2323,Lyell & Mt Read,STATE HWY 31 & MCNAUGHTON ST,43.164749,-77.658534,,,,,,0,
2324,2324,Lyell & Mt Read,STATE HWY 31 & STATE RTE 940K,43.164579,-77.660117,,,,,,0,
2325,2325,Lyell & Murray,STATE HWY 31 & MURRAY ST,43.164565,-77.641109,,,,,,0,
2326,2326,Lyell & Myrtle,STATE HWY 31 & MYRTLE ST,43.164706,-77.641066,,,,,,0,
2329,2329,Lyell & Plymouth,,43.164561,-77.626537,,,,,,0,
2335,2335,Lyell & Rossmore,STATE HWY 31 & ROSSMORE ST,43.16463,-77.688362,,,,,,0,
2336,2336,Lyell & Rossmore,STATE HWY 31 & ROSSMORE ST,43.164795,-77.687758,,,,,,0,
2338,2338,Lyell & Saratoga,LYELL AVE & SARATOGA AVE,43.164699,-77.628507,,,,,,0,
2340,2340,Lyell & Sherman,STATE HWY 31 & SHERMAN ST,43.164554,-77.635492,,,,,,0,
2350,2350,Lyell & Wetmore,STATE HWY 31 & WETMORE PARK,43.164564,-77.657155,,,,,,0,
2351,2351,Lyell & Wetmore,STATE HWY 31 & WETMORE PARK,43.16474,-77.656879,,,,,,0,
2355,2355,Pearl & Congress Lyons,PEARL ST & CONGRESS ST,43.063157,-76.99341,,,,,,0,
2356,2356,Main & Center Macedon,STATE HWY 31 & CENTER ST,43.068597,-77.300675,,,,,,0,
2357,2357,Main & Center Macedon,STATE HWY 31 & CENTER ST,43.068763,-77.300667,,,,,,0,
2358,2358,Main & O'Neil Macedon,STATE HWY 31 & QUAKER RD,43.070177,-77.289462,,,,,,0,
2393,2393,Main & 1154 Main,MAIN ST E & STATE ST,43.161599,-77.578818,,,,,,0,
2394,2394,Main & 1199 Main,MAIN ST E & LAURA ST,43.161584,-77.57972,,,,,,0,
2396,L2396,Main & 71 Main,US HWY 20 & SAINT JOHNS PARK,42.91136,-77.745611,,,,,,0,
2398,2398,Main & Akron,MAIN ST E & AKRON ST,43.160121,-77.553544,,,,,,0,
2399,2399,Main & Alexander,,43.160269,-77.591887,,,,,,0,
2400,2400,Main & Alexander,MAIN ST E & ALEXANDER ST,43.160631,-77.591457,,,,,,0,
2401,2401,Main & Aqueduct,MAIN ST E & AQUEDUCT ST,43.155647,-77.612307,,,,,,0,
2402,2402,Main & Arch,MAIN ST E & ARCH ST,43.160194,-77.568839,,,,,,0,
2407,2407,Main & Barnum,MAIN ST E & BARNUM ST,43.160678,-77.573337,,,,,,0,
2408,2408,Main & Beechwood,MAIN ST E & BEECHWOOD ST,43.161326,-77.576571,,,,,,0,
2409,2409,Main & Beechwood,MAIN ST E & BEECHWOOD ST,43.161166,-77.576821,,,,,,0,
2410,2410,Main & Birch,MAIN ST E & BIRCH CRES,43.161141,-77.588158,,,,,,0,
2411,2411,Main & Birch,MAIN ST E & BIRCH CRES,43.161358,-77.587935,,,,,,0,
2412,2412,Main & Bowman,MAIN ST E & BOWMAN ST,43.159984,-77.568405,,,,,,0,
2414,2414,Main & Brizee,MAIN ST & BRIZEE ST,43.106911,-77.488246,,,,,,0,
2417,2417,Main & Canal,,43.153131,-77.624121,,,,,,0,
2418,2418,Main & Canal,,43.152908,-77.62448,,,,,,0,
2419,2419,Main & Cascade,,43.154381,-77.618832,,,,,,0,
2421,2421,Main & Church,STATE HWY 31F & STATE HWY 250,43.099162,-77.442035,,,,,,0,
2428,2428,Main & Culver,MAIN ST E & CULVER RD,43.15995,-77.567047,,,,,,0,
2429,2429,Main & Culver,MAIN ST E & CULVER RD,43.159712,-77.566543,,,,,,0,
2432,2432,Main & Durham,MAIN ST E & DURHAM ST,43.159991,-77.559597,,,,,,0,
2433,2433,Main & East,STATE HWY 250 & EAST AVE,43.105593,-77.441812,,,,,,0,
2434,2434,Main & East,STATE HWY 250 & EAST AVE,43.105794,-77.441934,,,,,,0,
2435,2435,Main & Edgewood,,43.151162,-77.63257,,,,,,0,
2436,2436,Main & Edgewood,STATE HWY 33 & EDGEWOOD PARK,43.151036,-77.632595,,,,,,0,
2442,2442,Main & Fitzhugh,,43.155192,-77.614419,,,,,,0,
2443,2443,Main & Franklin,MAIN ST E & FRANKLIN ST,43.157759,-77.604141,,,,,,0,
2444,2444,Main & Genesee,STATE HWY 33 & GENESEE ST,43.150003,-77.636468,,,,,,0,
2445,2445,Main & Gibbs,MAIN ST E & GIBBS ST,43.158419,-77.601108,,,,,,0,
2446,2446,Main & Gibbs,MAIN ST E & GIBBS ST,43.158061,-77.601844,,,,,,0,
2448,2448,Main & Henion,,43.150709,-77.634625,,,,,,0,
2449,2449,Main & Henion,STATE HWY 33 & HENION ST,43.150638,-77.63433,,,,,,0,
2450,2450,Main & Herkimer,MAIN ST E & HERKIMER ST,43.160196,-77.569898,,,,,,0,
2451,2451,Main & Illinois,MAIN ST E & ILLINOIS ST,43.15988,-77.559221,,,,,,0,
2454,2454,Main & Jefferson,,43.152065,-77.628793,,,,,,0,
2455,2455,Main & Jefferson,STATE HWY 33 & JEFFERSON AVE,43.151834,-77.629135,,,,,,0,
2456,2456,Main & Kansas,,43.159983,-77.555788,,,,,,0,
2457,2457,Main & Kansas,MAIN ST E & KANSAS ST,43.160112,-77.555702,,,,,,0,
2458,2458,Main & King,,43.152617,-77.62637,,,,,,0,
2459,2459,Main & King,STATE HWY 33 & KING ST,43.152342,-77.626922,,,,,,0,
2461,2461,Main & Lake Hilton,STATE HWY 18 & STATE HWY 259,43.288164,-77.792789,,,,,,0,
2464,2464,Main & Lift Bridge Ln,STATE HWY 31F & LIFTBRIDGE LN E,43.10203,-77.441867,,,,,,0,
2465,2465,Main & Lift Bridge Ln,STATE HWY 31F & LIFTBRIDGE LN E,43.102507,-77.441941,,,,,,0,
2469,2469,Main & Minges,MAIN ST E & MINGES ALY,43.162128,-77.582664,,,,,,0,
2471,2471,Main & Montgomery,MAIN ST W & MONTGOMERY ALY,43.155344,-77.614776,,,,,,0,
2472,2472,Main & Mustard,MAIN ST E & MUSTARD ST,43.160965,-77.575185,,,,,,0,
2473,2473,Main & Ohio,MAIN ST E & OHIO ST,43.159801,-77.562063,,,,,,0,
2475,2475,Main & Packard,MAIN ST E & PACKARD ST,43.159835,-77.564491,,,,,,0,
2477,2477,Main & Pitkin,MAIN ST E & PITKIN ST,43.159206,-77.596616,,,,,,0,
2480,2480,Main & Prince,MAIN ST E & PRINCE ST,43.160716,-77.589792,,,,,,0,
2481,2481,Main & Prince,,43.161032,-77.589517,,,,,,0,
2482,2482,Main & Quincy,MAIN ST E & QUINCY ST,43.160331,-77.569938,,,,,,0,
2485,2485,Main & RTS,MAIN ST E & MUSTARD ST,43.160973,-77.574187,,,,,,0,
2486,2486,Main & Scio,MAIN ST E & SCIO ST,43.158613,-77.599231,,,,,,0,
2487,2487,Main & Richmond,MAIN ST E & SCIO ST,43.159068,-77.598256,,,,,,0,
2492,2492,Main & State,MAIN ST E & STATE ST,43.155847,-77.612281,,,,,,0,
2493,2493,Main & Stillson,MAIN ST E & STATE HWY 96,43.157779,-77.603351,,,,,,0,
2494,2494,Main & Trowbridge,,43.15351,-77.622471,,,,,,0,
2495,2495,Main & Trowbridge,STATE HWY 33 & TROWBRIDGE ST,43.153434,-77.622018,,,,,,0,
2496,2496,Main & Union,MAIN ST E & UNION ST N,43.160024,-77.594013,,,,,,0,
2498,2498,Main & Village Hall,STATE HWY 31F & PLEASANT ST,43.100506,-77.442037,,,,,,0,
2499,2499,Main & Village Hall,STATE HWY 31F & FAIRPORT VILLAGE LNDG,43.10065,-77.44184,,,,,,0,
2500,2500,Main & Washington (Rochester),,43.154729,-77.616578,,,,,,0,
2501,2501,Main & Washington (Rochester),,43.154872,-77.616891,,,,,,0,
2503,2503,Main & West,MAIN ST & WEST AVE,43.111508,-77.485956,,,,,,0,
2504,2504,Main & Whitney,STATE HWY 250 & COUNTY HWY 17,43.108139,-77.441712,,,,,,0,
2506,2506,Main & Winton,,43.159085,-77.548788,,,,,,0,
2507,2507,Main & Winton,,43.158975,-77.548807,,,,,,0,
2508,2508,Main & Wisconsin,MAIN ST E & WISCONSIN ST,43.159943,-77.557907,,,,,,0,
2509,2509,Main & Wisconsin,MAIN ST E & WISCONSIN ST,43.160073,-77.557579,,,,,,0,
2515,2515,Main & Del Monte Lodge,STATE HWY 96 & CHURCH ST,43.093877,-77.514261,,,,,,0,
2524,2524,Main & Pittsford Dairy,STATE HWY 96 & LOCUST ST,43.093541,-77.514179,,,,,,0,
2534,2534,Main & Washington (Pittford),STATE HWY 96 & STATE HWY 153,43.095671,-77.513941,,,,,,0,
2535,2535,Main & Washington (Pittsford),STATE HWY 96 & STATE HWY 153,43.095338,-77.514172,,,,,,0,
2545,2545,Maple & Ames,MAPLE ST & AMES ST,43.155183,-77.644287,,,,,,0,
2546,2546,Maple & Ames,MAPLE ST & AMES ST,43.155315,-77.643822,,,,,,0,
2547,2547,Maple & Colvin,MAPLE ST & COLVIN ST,43.155292,-77.640912,,,,,,0,
2548,2548,Maple & Colvin,MAPLE ST & COLVIN ST,43.155234,-77.641289,,,,,,0,
2549,2549,Maple & Craig,,43.155318,-77.651036,,,,,,0,
2550,2550,Maple & Craig,MAPLE ST & CRAIG ST,43.15522,-77.650993,,,,,,0,
2551,2551,Maple & Glide,MAPLE ST & GLIDE ST,43.155316,-77.653956,,,,,,0,
2552,2552,Maple & Glide,MAPLE ST & GLIDE ST,43.155241,-77.654292,,,,,,0,
2553,2553,Maple & Hague,MAPLE ST & HAGUE ST,43.155316,-77.64645,,,,,,0,
2554,2554,Maple & Hague,MAPLE ST & HAGUE ST,43.155193,-77.646686,,,,,,0,
2557,2557,Maple & Syke,MAPLE ST & SYKE ST,43.155197,-77.639257,,,,,,0,
2559,2559,Marketplace Dr & Jefferson,,43.085816,-77.624594,,,,,,0,
2560,2560,Marketplace Dr & Jefferson,MARKETPLACE DR & STATE HWY 252,43.085853,-77.624809,,,,,,0,
2561,2561,Marketplace Dr & Pepboys,MARKETPLACE DR & STATE HWY 252,43.07911,-77.625636,,,,,,0,
2562,2562,Marketplace Dr & Regal Cinemas,MARKETPLACE DR & UNNAMED ST,43.082442,-77.624762,,,,,,0,
2563,2563,Marketplace Dr & Walmart,MARKETPLACE DR & UNNAMED ST,43.080331,-77.62473,,,,,,0,
2564,2564,Marketplace Dr & Walmart Henrietta,MARKETPLACE DR & CONNECTING RD,43.080351,-77.624537,,,,,,0,
2565,2565,Marketplace Mall Food Court Entranc,,43.084769,-77.634433,,,,,,0,
2575,2575,Monroe Community Coll Main Entrance,MCC LOOP & BROOKS AVE,43.101842,-77.613798,,,,,,0,
2596,2596,Merchants & Fairfax,,43.162117,-77.55252,,,,,,0,
2626,2626,Monroe & 1392 Monroe,STATE HWY 31 & SYLVAN RD,43.134965,-77.573935,,,,,,0,
2627,2627,Monroe & 1415 Monroe,,43.134655,-77.573911,,,,,,0,
2630,2630,Monroe & 2775 Monroe,STATE HWY 31 & RAMP,43.112399,-77.549762,,,,,,0,
2632,2632,Monroe & 2945 Monroe,STATE HWY 31 & RAMP,43.109848,-77.54634,,,,,,0,
2633,2633,Monroe & 3030 Monroe,STATE HWY 31 & RAMP,43.109494,-77.545387,,,,,,0,
2636,2636,Monroe & 3300 Monroe,STATE HWY 31 & RAMP,43.103464,-77.538743,,,,,,0,
2638,2638,Monroe & 3380 Monroe,STATE HWY 31 & RAMP,43.101665,-77.537325,,,,,,0,
2639,2639,Monroe & 3400 Monroe,,43.101586,-77.536823,,,,,,0,
2640,2640,Monroe & 3750 Monroe,STATE HWY 31 & PARKING LOT,43.095654,-77.526886,,,,,,0,
2641,2641,Monroe & 3750 Monroe,STATE HWY 31 & PARKING LOT,43.095835,-77.527586,,,,,,0,
2642,2642,Monroe & Alexander,,43.14919,-77.598026,,,,,,0,
2643,2643,Monroe & Allens Creek,STATE HWY 31 & COUNTY HWY 239,43.116185,-77.553228,,,,,,0,
2646,2646,Monroe & Averill,STATE HWY 31 & AVERILL AVE,43.147788,-77.595677,,,,,,0,
2647,2647,Monroe & Averill,STATE HWY 31 & AVERILL AVE,43.147785,-77.596018,,,,,,0,
2649,2649,Monroe & Boardman,STATE HWY 31 & BOARDMAN ST,43.144738,-77.590668,,,,,,0,
2650,2650,Monroe & Brittany,STATE HWY 31 & BRITTANY LN,43.096971,-77.529201,,,,,,0,
2652,2652,Monroe & Canterbury,,43.1428,-77.587049,,,,,,0,
2653,2653,Monroe & Canterbury,STATE HWY 31 & DARTMOUTH ST,43.142998,-77.587698,,,,,,0,
2654,2654,Monroe & Clover,,43.111541,-77.548235,,,,,,0,
2655,2655,Monroe & Colonial,STATE HWY 31 & COLONIAL PKWY,43.097931,-77.531287,,,,,,0,
2656,2656,Monroe & Colonial,STATE HWY 31 & COLONIAL PKWY,43.098554,-77.532012,,,,,,0,
2657,2657,Monroe & Continental,STATE HWY 31 & CONTINENTAL DR,43.124595,-77.56264,,,,,,0,
2658,2658,Monroe & Continental,STATE HWY 31 & CONTINENTAL DR,43.124791,-77.562653,,,,,,0,
2660,2660,Monroe & Crosman,STATE HWY 31 & CROSMAN TER,43.141149,-77.584393,,,,,,0,
2661,2661,Monroe & Culver,STATE HWY 31 & WERNER PARK,43.138047,-77.578914,,,,,,0,
2664,2664,Monroe & Edgewood,STATE HWY 31 & COUNTY HWY 102,43.11881,-77.556195,,,,,,0,
2667,2667,Monroe & French,STATE HWY 31 & FRENCH RD,43.100437,-77.535135,,,,,,0,
2668,2668,Monroe & French,STATE HWY 31 & FRENCH RD,43.100589,-77.535886,,,,,,0,
2669,2669,Monroe & Glen Ellyn,,43.129631,-77.568293,,,,,,0,
2670,2670,Monroe & Glen Ellyn,STATE HWY 31 & GLEN ELLYN WAY,43.129513,-77.567932,,,,,,0,
2671,2671,Monroe & Goodman,STATE HWY 31 & GOODMAN ST S,43.145895,-77.592673,,,,,,0,
2672,2672,Monroe & Goodman,STATE HWY 31 & GOODMAN ST S,43.145877,-77.592391,,,,,,0,
2673,2673,Monroe & Hampshire,STATE HWY 31 & HAMPSHIRE DR,43.122805,-77.560405,,,,,,0,
2674,2674,Monroe & Hampshire,STATE HWY 31 & HAMPSHIRE DR,43.122746,-77.560591,,,,,,0,
2675,2675,Monroe & Highland,,43.136615,-77.575951,,,,,,0,
2676,2676,Monroe & Highland,,43.136328,-77.575788,,,,,,0,
2677,2677,Monroe & Hillside Manor Apts,STATE HWY 31 & CULVER RD,43.13698,-77.577003,,,,,,0,
2681,2681,Monroe & Laburnum,STATE HWY 31 & LABURNAM CRES,43.141693,-77.58503,,,,,,0,
2682,2682,Monroe & Linwood,STATE HWY 31 & LINWOOD PL,43.149591,-77.598742,,,,,,0,
2689,2689,Monroe & Meadow,STATE HWY 31 & COUNTY HWY 102,43.118728,-77.555875,,,,,,0,
2690,2690,Monroe & Meigs,STATE HWY 31 & MEIGS ST,43.147123,-77.594583,,,,,,0,
2691,2691,Monroe & Meigs,STATE HWY 31 & MEIGS ST,43.147138,-77.594884,,,,,,0,
2692,2692,Monroe & Monroe Pky,STATE HWY 31 & MONROE PKWY,43.120993,-77.558461,,,,,,0,
2693,2693,Monroe & Monroe Pky,STATE HWY 31 & MONROE PKWY,43.120808,-77.558417,,,,,,0,
2698,2698,Monroe & Pittsford Garden,STATE HWY 31 & BRITTANY LN,43.096741,-77.529201,,,,,,0,
2699,2699,Monroe & Pittsford Plaza East Ent,STATE HWY 31 & PITTSFORD PLZ,43.103524,-77.53925,,,,,,0,
2700,2700,Monroe & Pittsford Wegmans,STATE HWY 31 & CHESTNUT ST,43.106277,-77.542108,,,,,,0,
2701,2701,Monroe & Pittsford Wegmans Entrance,STATE HWY 31 & PITTSFORD PLZ,43.105212,-77.540602,,,,,,0,
2702,2702,Monroe & Priem,STATE HWY 31 & PRIEM ST,43.149449,-77.598924,,,,,,0,
2705,2705,Monroe & Shepard,STATE HWY 31 & SHEPARD ST,43.140495,-77.583292,,,,,,0,
2706,2706,Monroe & Sutherland,STATE HWY 31 & SUTHERLAND ST,43.092382,-77.519545,,,,,,0,
2707,2707,Monroe & Sutherland,STATE HWY 31 & SUTHERLAND ST,43.092312,-77.519672,,,,,,0,
2708,2708,Monroe & St Regis,STATE HWY 31 & SAINT REGIS DR N,43.132494,-77.571194,,,,,,0,
2709,2709,Monroe & St Regis,STATE HWY 31 & SAINT REGIS DR S,43.132239,-77.571183,,,,,,0,
2713,2713,Monroe & Union,STATE HWY 31 & S UNION ST,43.150043,-77.599725,,,,,,0,
2717,2717,Monroe & Washington,STATE HWY 31 & WASHINGTON AVE,43.091471,-77.516761,,,,,,0,
2718,2718,Monroe & Werner,STATE HWY 31 & WERNER PARK,43.138275,-77.579046,,,,,,0,
2719,2719,Monroe & Westfall,STATE HWY 31 & COUNTY HWY 239,43.116752,-77.554118,,,,,,0,
2721,2721,Monroe & Wilmer,STATE HWY 31 & WILMER ST,43.144922,-77.590696,,,,,,0,
2722,2722,Monroe & Winton,STATE HWY 31 & WINTON RD S,43.127081,-77.565109,,,,,,0,
2723,2723,Monroe & Winton,STATE HWY 31 & WINTON RD S,43.127168,-77.565517,,,,,,0,
2726,2726,Monroe Community Hospital & Faith,,43.112535,-77.618039,,,,,,0,
2727,2727,Monroe County DSS,,43.113752,-77.619621,,,,,,0,
2741,2741,College Town,MOUNT HOPE AVE & STATE HWY 15,43.123399,-77.618419,,,,,,0,
2742,2742,Mt Hope & Alexander,STATE HWY 15 & ALEXANDER ST,43.145744,-77.609297,,,,,,0,
2743,2743,Mt Hope & Alexander,STATE HWY 15 & ALEXANDER ST,43.146132,-77.609135,,,,,,0,
2744,2744,Mt Hope & Averill,STATE HWY 15 & AVERILL AVE,43.143704,-77.611212,,,,,,0,
2745,2745,Mt Hope & Averill,STATE HWY 15 & AVERILL AVE,43.143976,-77.611187,,,,,,0,
2746,2746,Mt Hope & Cimarron,STATE HWY 15 & CIMARRON DR,43.115444,-77.621942,,,,,,0,
2747,2747,Mt Hope & Comfort,STATE HWY 15 & COMFORT ST,43.147323,-77.607997,,,,,,0,
2749,2749,Mt Hope & Cypress,STATE HWY 15 & CYPRESS ST,43.139669,-77.614124,,,,,,0,
2750,2750,Mt Hope & Cypress,STATE HWY 15 & CYPRESS ST,43.13986,-77.613819,,,,,,0,
2751,2751,Mt Hope & Elmerston,STATE HWY 15 & ELMERSTON RD,43.116219,-77.621806,,,,,,0,
2752,2752,Mt Hope & Elmwood,STATE HWY 15 & ELMWOOD AVE,43.124906,-77.617539,,,,,,0,
2753,2753,Mt Hope & Elmwood,STATE HWY 15 & ELMWOOD AVE,43.124503,-77.617436,,,,,,0,
2757,2757,Mt Hope & Gregory,STATE HWY 15 & GREGORY ST,43.142161,-77.612568,,,,,,0,
2758,2758,Mt Hope & Gregory,STATE HWY 15 & GREGORY ST,43.141535,-77.612864,,,,,,0,
2759,2759,Mt Hope & Hamilton,STATE HWY 15 & HAMILTON ST,43.144992,-77.610248,,,,,,0,
2760,2760,Mt Hope & Hamilton,STATE HWY 15 & HAMILTON ST,43.144764,-77.610283,,,,,,0,
2763,2763,Mt Hope & Highland,STATE HWY 15 & HIGHLAND AVE,43.131002,-77.614106,,,,,,0,
2764,2764,Mt Hope & Highland,STATE HWY 15 & HIGHLAND AVE,43.130362,-77.61428,,,,,,0,
2765,2765,Mt Hope & Lattimore,STATE HWY 15 & IRVINGTON RD,43.118804,-77.620442,,,,,,0,
2767,2767,Mt Hope & Lattimore,STATE HWY 15 & LATTIMORE RD,43.118544,-77.620422,,,,,,0,
2768,2768,Mt Hope & McLean,STATE HWY 15 & MCLEAN ST,43.136621,-77.614358,,,,,,0,
2769,2769,Mt Hope & McLean,STATE HWY 15 & MCLEAN ST,43.136693,-77.614222,,,,,,0,
2770,2770,Mt Hope & Redfern,STATE HWY 15 & REDFERN DR,43.116961,-77.621178,,,,,,0,
2772,2772,Mt Hope & Robinson,STATE HWY 15 & ROBINSON DR,43.134681,-77.613753,,,,,,0,
2773,2773,Mt Hope & Robinson,STATE HWY 15 & ROBINSON DR,43.134464,-77.613528,,,,,,0,
2774,2774,Mt Hope & Rossiter,STATE HWY 15 & ROSSITER RD,43.120445,-77.61961,,,,,,0,
2776,2776,Mt Hope & Shelbourne,STATE HWY 15 & SHELBOURNE RD,43.117153,-77.621335,,,,,,0,
2778,2778,Mt Hope & Stewart,STATE HWY 15 & STEWART ST,43.127902,-77.615738,,,,,,0,
2779,2779,Mt Hope & Stewart,STATE HWY 15 & STEWART ST,43.127744,-77.615982,,,,,,0,
2780,2780,Mt Hope & Westfall,STATE HWY 15 & WESTFALL RD,43.113615,-77.622811,,,,,,0,
2781,2781,Mt Hope & Westmoreland,STATE HWY 15 & WESTMORELAND DR,43.114617,-77.62262,,,,,,0,
2784,2784,Mt Read & 3750 Mt Read,COUNTY HWY 150 & FRONTAGE RD,43.227238,-77.658929,,,,,,0,
2788,2788,Mt Read & Dorsey,COUNTY HWY 150 & COUNTY HWY 267,43.230896,-77.658955,,,,,,0,
2794,2794,Mt Read & Handy,STATE RTE 940K & HANDY ST,43.152913,-77.659465,,,,,,0,
2796,2796,Mt Read & Jay,STATE RTE 940K & JAY ST,43.159062,-77.659658,,,,,,0,
2797,2797,Mt Read & Jay,STATE RTE 940K & JAY ST,43.159293,-77.659352,,,,,,0,
2804,2804,Mt Read & Maiden,COUNTY HWY 150 & MAIDEN LN,43.225131,-77.659198,,,,,,0,
2808,2808,Mt Read & Maple,STATE RTE 940K & MAPLE ST,43.155192,-77.659346,,,,,,0,
2809,2809,Mt Read & McArdle,STATE RTE 940K & MCARDLE ST,43.153263,-77.659718,,,,,,0,
2810,2810,Mt Read & McArdle,STATE RTE 940K & MCARDLE ST,43.153826,-77.65942,,,,,,0,
2813,2813,Mt Read & N Point Ctr,COUNTY HWY 150,43.225399,-77.658899,,,,,,0,
2831,2831,Myrtle & Otis,MYRTLE ST & OTIS ST,43.168723,-77.641437,,,,,,0,
2832,2832,Myrtle & Otis,,43.168564,-77.641314,,,,,,0,
2834,2834,Union & Finch  Newark,STATE HWY 31 & FINCH ST,43.046734,-77.111549,,,,,,0,
2835,2835,Central Park & Church Newark,MAPLE CT & CHURCH ST,43.044569,-77.093948,,,,,,0,
2836,2836,Niagara & Bay,NIAGARA ST & BAY ST,43.170417,-77.589313,,,,,,0,
2837,2837,Niagara & Bay,NIAGARA ST & BAY ST,43.17053,-77.589207,,,,,,0,
2838,2838,Niagara & Central Park,NIAGARA ST & CENTRAL PARK,43.168541,-77.589243,,,,,,0,
2840,2840,Niagara & Dake,NIAGARA ST & DAKE ST,43.169427,-77.589178,,,,,,0,
2852,2852,Norfolk & Blue Spruce,NORFOLK DR & BLUE SPRUCE DR,43.099331,-77.753038,,,,,,0,
2853,2853,Norfolk & Forsythia,NORFOLK DR & FORSYTHIA DR,43.097953,-77.750103,,,,,,0,
2854,2854,Norfolk & Mimosa,NORFOLK DR & MIMOSA DR,43.096298,-77.750159,,,,,,0,
2855,2855,Norfolk & Privet,NORFOLK DR & PRIVET WAY,43.099343,-77.750855,,,,,,0,
2856,2856,Norfolk & Purple Leaf,NORFOLK DR & PURPLE LEAF LN,43.097293,-77.750141,,,,,,0,
2863,2863,North & Merrimac,NORTH ST & CLEVELAND ST,43.171486,-77.597386,,,,,,0,
2864,2864,North & Clifford,,43.175059,-77.595199,,,,,,0,
2865,2865,North & Clifford,NORTH ST & WATKIN TER,43.174726,-77.595547,,,,,,0,
2866,2866,North & Draper,,43.170626,-77.597706,,,,,,0,
2868,2868,North & Hartford,NORTH ST & HARTFORD ST,43.166681,-77.599886,,,,,,0,
2869,2869,North & Hartford,NORTH ST & HARTFORD ST,43.166747,-77.600035,,,,,,0,
2870,2870,North & Lyndhurst,,43.162951,-77.601928,,,,,,0,
2872,2872,North & Ontario,NORTH ST & ONTARIO ST,43.165414,-77.600585,,,,,,0,
2873,2873,North & Ontario,NORTH ST & ONTARIO ST,43.165516,-77.60075,,,,,,0,
2874,2874,North & Reed,NORTH ST & REED PARK,43.173176,-77.596435,,,,,,0,
2875,2875,North & Reed,,43.173053,-77.596347,,,,,,0,
2877,2877,North & Weld,NORTH ST & WELD ST,43.163893,-77.601622,,,,,,0,
2879,2879,North & Wilson,NORTH ST & WILSON ST,43.168948,-77.598788,,,,,,0,
2883,2883,Norton & Baird,NORTON ST & BAIRD ST,43.187109,-77.592746,,,,,,0,
2884,2884,Norton & Baird,,43.18702,-77.5931,,,,,,0,
2892,2892,Norton & Culver,NORTON ST & CONKEY AVE,43.188193,-77.561871,,,,,,0,
2905,2905,Norton & North,NORTON ST & NORTH ST,43.186924,-77.595887,,,,,,0,
2914,2914,Norton & Strathmore,NORTON ST & STRATHMORE CIR,43.187946,-77.56909,,,,,,0,
2918,2918,Norton & Woodside,NORTON ST & WOODSIDE PL,43.188076,-77.565641,,,,,,0,
2922,2922,Old Scottsvile Chili & Beaver,OLD SCOTTSVILLE CHILI RD & STATE HWY 252,43.095792,-77.754256,,,,,,0,
2925,2925,Old Scottsvile Chili & Norfolk,OLD SCOTTSVILLE CHILI RD & NORFOLK DR,43.099409,-77.753865,,,,,,0,
2932,2932,Panorama Trail & Panorama Creek,STATE HWY 153 & PANORAMA CREEK DR,43.129766,-77.495112,,,,,,0,
2933,2933,Panorama Trail & Panorama Plaza,STATE HWY 153 & PANORAMA TRL S,43.132044,-77.493405,,,,,,0,
2937,2937,Park & Alexander,PARK AVE & ALEXANDER ST,43.152283,-77.595592,,,,,,0,
2938,2938,Park & Barrington,,43.149048,-77.581462,,,,,,0,
2939,2939,Park & Barrington,PARK AVE & BARRINGTON ST,43.149101,-77.581664,,,,,,0,
2940,2940,Park & Berkeley,,43.148116,-77.578088,,,,,,0,
2941,2941,Park & Berkeley,PARK AVE & BERKELEY ST,43.14819,-77.577769,,,,,,0,
2942,2942,Park & Beverly,PARK AVE & BEVERLY ST,43.146279,-77.571123,,,,,,0,
2943,2943,Park & Beverly,,43.146193,-77.571319,,,,,,0,
2944,2944,Park & Brunswick,PARK AVE & BRUNSWICK ST,43.147143,-77.574266,,,,,,0,
2945,2945,Park & Brunswick,,43.147146,-77.574588,,,,,,0,
2948,2948,Park & Colby,,43.145691,-77.562753,,,,,,0,
2949,2949,Park & Culver,PARK AVE & CULVER RD,43.146807,-77.573015,,,,,,0,
2950,2950,Park & Culver,,43.146799,-77.573411,,,,,,0,
2953,2953,Park & Faraday,PARK AVE & FARADAY ST,43.145921,-77.567265,,,,,,0,
2954,2954,Park & Faraday,PARK AVE & FARADAY ST,43.146089,-77.566662,,,,,,0,
2955,2955,Park & Goodman,PARK AVE & GOODMAN ST S,43.150421,-77.590057,,,,,,0,
2956,2956,Park & Goodman,PARK AVE & GOODMAN ST S,43.150439,-77.589656,,,,,,0,
2958,2958,Park & Homer,PARK AVE & HOMER ST,43.146098,-77.564821,,,,,,0,
2959,2959,Park & Homer,PARK AVE & HOMER ST,43.145975,-77.565087,,,,,,0,
2961,2961,Park & Meigs,PARK AVE & MEIGS ST,43.151201,-77.592216,,,,,,0,
2962,2962,Park & Meigs,PARK AVE & MEIGS ST,43.151123,-77.592523,,,,,,0,
2963,2963,Park & Oxford,PARK AVE & OXFORD ST,43.149922,-77.586147,,,,,,0,
2964,2964,Park & Oxford,,43.149874,-77.58657,,,,,,0,
2977,2977,Parma Ctr & Parma Corners Hilton,STATE HWY 18 & COUNTY HWY 185,43.258711,-77.790452,,,,,,0,
2978,2978,Parma Ctr & Parma Corners Hilton,STATE HWY 18 & COUNTY HWY 185,43.258872,-77.790376,,,,,,0,
2979,2979,Parma Corners Hilton & Burritt,STATE HWY 18 & COUNTY HWY 187,43.273429,-77.791186,,,,,,0,
2980,2980,Parma Corners Hilton & Burritt,STATE HWY 18 & COUNTY HWY 187,43.273262,-77.790983,,,,,,0,
2981,2981,Parsells & Baldwin,PARSELLS AVE & BALDWIN ST,43.165647,-77.578098,,,,,,0,
2982,2982,Parsells & Baldwin,PARSELLS AVE & BALDWIN ST,43.165512,-77.578017,,,,,,0,
2983,2983,Parsells & Chamberlain,PARSELLS AVE & CHAMBERLAIN ST,43.165713,-77.575043,,,,,,0,
2984,2984,Parsells & Chamberlain,,43.165615,-77.57501,,,,,,0,
2985,2985,Parsells & Culver,PARSELLS AVE & GREELEY ST,43.165988,-77.563846,,,,,,0,
2986,2986,Parsells & Culver,PARSELLS AVE & CULVER RD,43.165861,-77.563376,,,,,,0,
2987,2987,Parsells & Denver,PARSELLS AVE & DENVER ST,43.165711,-77.569864,,,,,,0,
2988,2988,Parsells & Denver,PARSELLS AVE & DENVER ST,43.165882,-77.568919,,,,,,0,
2989,2989,Parsells & Greeley,PARSELLS AVE & GREELEY ST,43.165908,-77.566298,,,,,,0,
2990,2990,Parsells & Greeley,PARSELLS AVE & GREELEY ST,43.165811,-77.566053,,,,,,0,
3009,3009,Penfield & 1795 Penfield,STATE HWY 441 & PARKING LOT,43.129339,-77.478105,,,,,,0,
3010,3010,Penfield & 1806 Penfield,STATE HWY 441 & PARKING LOT,43.129847,-77.476944,,,,,,0,
3016,3016,Penfield & Burrows,PENFIELD RD & BURROWS DR,43.135444,-77.509167,,,,,,0,
3019,3019,Penfield & Commodore,PENFIELD RD & COMMODORE PKWY,43.137251,-77.520053,,,,,,0,
3020,3020,Penfield & Dale,PENFIELD RD & DALE RD,43.137147,-77.520071,,,,,,0,
3021,3021,Penfield & Five Mile Line,STATE HWY 441 & COUNTY HWY 18,43.129918,-77.476145,,,,,,0,
3026,3026,Penfield & Landing N,PENFIELD RD & LANDING RD N,43.137779,-77.529268,,,,,,0,
3027,3027,Penfield & Landing N,PENFIELD RD & LANDING RD N,43.137921,-77.529512,,,,,,0,
3028,3028,Penfield & Liberty,STATE HWY 441 & LIBERTY ST,43.129138,-77.47956,,,,,,0,
3031,3031,Penfield & Old Penfield East,PENFIELD RD & OLD PENFIELD RD,43.135172,-77.49711,,,,,,0,
3032,3032,Penfield & Sky Ridge,PENFIELD RD & OLD PENFIELD RD,43.135226,-77.505752,,,,,,0,
3033,3033,Penfield & Panorama,PENFIELD RD & STATE HWY 153,43.132715,-77.491297,,,,,,0,
3034,3034,Penfield & Panorama Plaza,PENFIELD RD & STATE HWY 153,43.134554,-77.495275,,,,,,0,
3035,3035,Penfield & Panorama Trail,PENFIELD RD & PANORAMA TRL S,43.133586,-77.492852,,,,,,0,
3037,3037,Penfield & Park Ln,PENFIELD RD & PARK LN,43.137657,-77.523374,,,,,,0,
3038,3038,Penfield & Weymouth,PENFIELD RD & PARK LN,43.137661,-77.522279,,,,,,0,
3040,3040,Penfield & Penfield Cres,PENFIELD RD & PENFIELD CRES,43.135819,-77.514323,,,,,,0,
3045,3045,Penfield & Sky Ridge,PENFIELD RD & SKY RIDGE DR,43.135353,-77.506351,,,,,,0,
3046,3046,Penfield & Speedy's Plaza,PENFIELD RD & SKY RIDGE DR,43.130378,-77.487348,,,,,,0,
3047,3047,Penfield & Superior,PENFIELD RD & SUPERIOR RD,43.136334,-77.517294,,,,,,0,
3048,3048,Penfield & Superior,PENFIELD RD & SUPERIOR RD,43.136416,-77.517178,,,,,,0,
3054,3054,Perinton Park & Ride,COURTNEY DR & PARK AND RIDE,43.067456,-77.43885,,,,,,0,
3070,3070,Pittsford Palmyra & Valley Crk,STATE HWY 31 & VALLEY CRK,43.070342,-77.447409,,,,,,0,
3071,3071,Pittsford Palmyra & Ayrault,STATE HWY 31 & COUNTY HWY 21,43.077623,-77.476859,,,,,,0,
3073,3073,Pittsford Palmyra & Sandle,STATE HWY 31 & SANDLE DR,43.076481,-77.471995,,,,,,0,
3074,3074,Pittsford Palmyra & Wegmans East En,STATE HWY 31 & STATE HWY 250,43.069671,-77.444821,,,,,,0,
3088,3088,Plymouth & Bartlett,,43.142696,-77.61934,,,,,,0,
3089,3089,Plymouth & Edith,,43.142556,-77.619264,,,,,,0,
3092,3092,Plymouth & Church,PLYMOUTH AVE N & CHURCH ST,43.15625,-77.616537,,,,,,0,
3093,3093,Plymouth & Columbia,STATE HWY 383 & COLUMBIA AVE,43.141375,-77.620688,,,,,,0,
3094,3094,Plymouth & Platt,PLYMOUTH AVE N & PLATT ST,43.15996,-77.620043,,,,,,0,
3100,3100,Plymouth & Jay,PLYMOUTH AVE N & JAY ST,43.161995,-77.622794,,,,,,0,
3102,3102,Plymouth & Smith,PLYMOUTH AVE N & SMITH ST,43.163192,-77.624412,,,,,,0,
3107,3107,Plymouth & 1400 Plymouth,STATE HWY 383 & COUNTY HWY 39,43.131982,-77.633965,,,,,,0,
3108,3108,Plymouth & 1400 Plymouth,STATE HWY 383 & COUNTY HWY 39,43.131901,-77.63387,,,,,,0,
3111,3111,Plymouth & Barton,STATE HWY 383 & BARTON ST,43.133806,-77.630701,,,,,,0,
3112,3112,Plymouth & Barton,STATE HWY 383 & BARTON ST,43.133883,-77.630797,,,,,,0,
3114,3114,Plymouth & Cottage,STATE HWY 383 & COTTAGE ST,43.134735,-77.628867,,,,,,0,
3115,3115,Plymouth & Ethel,STATE HWY 383 & ETHEL ST,43.141298,-77.620572,,,,,,0,
3117,3117,Plymouth & Flint,STATE HWY 383 & FLINT ST,43.139281,-77.622943,,,,,,0,
3118,3118,Plymouth & Flint,STATE HWY 383 & FLINT ST,43.138991,-77.623081,,,,,,0,
3119,3119,Plymouth & Jefferson,STATE HWY 383 & COTTAGE ST,43.13532,-77.628638,,,,,,0,
3120,3120,Plymouth & Magnolia,STATE HWY 383 & MAGNOLIA ST,43.137362,-77.625605,,,,,,0,
3121,3121,Plymouth & Magnolia,STATE HWY 383 & MAGNOLIA ST,43.137125,-77.625742,,,,,,0,
3132,3132,Portland & 141 Portland,PORTLAND AVE & WESLEY ST,43.168231,-77.597137,,,,,,0,
3137,3137,Portland & Bernard,PORTLAND AVE & BERNARD ST,43.17741,-77.589936,,,,,,0,
3138,3138,Portland & Buell,COUNTY HWY 114 & BUELL DR,43.191554,-77.584249,,,,,,0,
3139,3139,Portland & Carter,PORTLAND AVE & CARTER ST,43.176315,-77.590743,,,,,,0,
3140,3140,Portland & Central Park,PORTLAND AVE & CENTRAL PARK,43.169512,-77.595212,,,,,,0,
3141,3141,Portland & Grafton,PORTLAND AVE & DELAMAINE DR,43.183416,-77.585179,,,,,,0,
3142,3142,Portland & Clifford,PORTLAND AVE & CLIFFORD AVE,43.175122,-77.591376,,,,,,0,
3143,3143,Portland & Delamaine,PORTLAND AVE & DELAMAINE DR,43.184006,-77.584682,,,,,,0,
3144,3144,Portland & Draper,PORTLAND AVE & DRAPER ST,43.169954,-77.595125,,,,,,0,
3145,3145,Portland & Durnan,PORTLAND AVE & DURNAN ST,43.182472,-77.586502,,,,,,0,
3146,3146,Portland & Fernwood,PORTLAND AVE & FERNWOOD AVE,43.176867,-77.590172,,,,,,0,
3147,3147,Portland & Furlong,PORTLAND AVE & FURLONG ST,43.185443,-77.584111,,,,,,0,
3149,3149,Portland & Irondequoit,PORTLAND AVE & IRONDEQUOIT ST,43.172195,-77.593372,,,,,,0,
3150,3150,Portland & Lansing,,43.173566,-77.592637,,,,,,0,
3152,3152,Portland & Lux,PORTLAND AVE & LUX ST,43.181267,-77.587358,,,,,,0,
3155,3155,Portland & Shelmont,COUNTY HWY 114 & SHELMONT DR,43.190131,-77.584428,,,,,,0,
3156,3156,Portland & Pomeroy,,43.185676,-77.583908,,,,,,0,
3157,3157,Portland & Norton,PORTLAND AVE & BACHMAN RD,43.187855,-77.584035,,,,,,0,
3158,3158,Portland & Norton,PORTLAND AVE & NORTON ST,43.187458,-77.584253,,,,,,0,
3161,3161,Portland & Portland Ct,PORTLAND AVE & PORTLAND CT,43.188924,-77.584112,,,,,,0,
3162,3162,Portland & Randolph,PORTLAND AVE & RANDOLPH ST,43.181949,-77.58665,,,,,,0,
3164,3164,Portland & Buell,COUNTY HWY 114 & DRIVEWAY,43.192326,-77.584567,,,,,,0,
3165,3165,Portland & Shelmont,PORTLAND AVE & SHELMONT DR,43.189689,-77.584142,,,,,,0,
3166,3166,Portland & St Ann's,COUNTY HWY 114 & ST ANNS CIR,43.193249,-77.584333,,,,,,0,
3169,3169,Portland & Stevens,,43.17216,-77.593587,,,,,,0,
3171,3171,Portland & Wesley,PORTLAND AVE & WESLEY ST,43.167887,-77.597517,,,,,,0,
3172,3172,Portland & Willite,PORTLAND AVE & WILLITE DR,43.179908,-77.58824,,,,,,0,
3173,3173,Portland & Willite,PORTLAND AVE & WILLITE DR,43.179716,-77.588197,,,,,,0,
3175,3175,Railroad & Hovey Hilton P & R,RAILROAD AVE & HOVEY ST,43.289449,-77.790847,,,,,,0,
3178,3178,Reynolds & Samuel McCree,REYNOLDS ST & DR SAMUEL MCCREE WAY,43.14691,-77.626148,,,,,,0,
3242,3242,Ridge & Hargrave,,43.194863,-77.61027,,,,,,0,
3243,3243,Ridge & 1267 Ridge,COUNTY HWY 241 & BELLAMY DR,43.197624,-77.583673,,,,,,0,
3244,3244,Ridge & 1274 Ridge,COUNTY HWY 241 & BELLAMY DR,43.197955,-77.582993,,,,,,0,
3247,3247,Ridge & 1406 Ridge,COUNTY HWY 241 & RIDGE RD E,43.198622,-77.57975,,,,,,0,
3248,3248,Ridge & 1571 Ridge,RIDGE RD E & UNNAMED ST,43.199633,-77.574562,,,,,,0,
3253,3253,Ridge & 824 Ridge,COUNTY HWY 241 & BRAMBURY DR,43.196779,-77.595738,,,,,,0,
3255,3255,Ridge & Brown,,43.201926,-77.567306,,,,,,0,
3256,3256,Ridge & Brown,COUNTY HWY 241 & BROWN RD,43.201675,-77.567559,,,,,,0,
3260,3260,Ridge & Irondequoit Mall East Ent,COUNTY HWY 241 & PARKING LOT,43.200901,-77.570169,,,,,,0,
3263,3263,Ridge & Goodman,,43.198921,-77.577298,,,,,,0,
3265,3265,Ridge & Kings Highway,RIDGE RD E & COUNTY HWY 241,43.19928,-77.576517,,,,,,0,
3266,3266,Ridge & Marshalls Plaza,,43.198378,-77.58001,,,,,,0,
3268,3268,Ridge & Perrin,COUNTY HWY 241 & PERRIN DR,43.202764,-77.563906,,,,,,0,
3269,3269,Ridge & Ridge Hudson Plaza,COUNTY HWY 241 & COUNTY HWY 112,43.196524,-77.598511,,,,,,0,
3271,3271,Ridge & Vinedale,,43.202844,-77.564242,,,,,,0,
3286,3286,Ridge & Apollo,,43.207843,-77.684376,,,,,,0,
3287,3287,Ridge & Bernice,STATE HWY 104 & BERNICE ST,43.202566,-77.644448,,,,,,0,
3289,3289,Ridge & Bonesteel,STATE HWY 104 & BONESTEEL ST,43.203398,-77.65146,,,,,,0,
3290,3290,Ridge & Bonesteel,STATE HWY 104 & BONESTEEL ST,43.203167,-77.65201,,,,,,0,
3291,3291,Ridge & Cabot,STATE HWY 104 & CABOT RD,43.207866,-77.682322,,,,,,0,
3293,3293,Ridge & Carlisle,STATE HWY 104 & CARLISLE ST,43.203132,-77.649159,,,,,,0,
3294,3294,Ridge & Carlisle,,43.202822,-77.648992,,,,,,0,
3295,3295,Ridge & Corona,,43.205012,-77.666508,,,,,,0,
3297,3297,Ridge & Desmond,STATE HWY 104 & DESMOND ST,43.198461,-77.635028,,,,,,0,
3298,3298,Ridge & Desmond,STATE HWY 104 & DESMOND ST,43.198476,-77.634588,,,,,,0,
3300,3300,Ridge & Dewey,STATE HWY 104 & DEWEY AVE,43.200439,-77.638411,,,,,,0,
3307,3307,Ridge & Fetzner,STATE HWY 104 & COUNTY HWY 152,43.207471,-77.679693,,,,,,0,
3311,3311,Ridge & Glenora,STATE HWY 104 & GLENORA DR,43.203764,-77.657259,,,,,,0,
3312,3312,Ridge & Glenora,STATE HWY 104 & GLENORA DR,43.203971,-77.656737,,,,,,0,
3316,3316,Ridge & Hoover,,43.205759,-77.671192,,,,,,0,
3317,3317,Ridge & Kodak Access,,43.204448,-77.662734,,,,,,0,
3318,3318,Ridge & Pullman,STATE HWY 104 & MINDER ST,43.195155,-77.629683,,,,,,0,
3319,3319,Ridge & Lake,STATE HWY 104 & STATE RTE 940M,43.195295,-77.629401,,,,,,0,
3320,3320,Ridge & Latona,STATE HWY 104 & COUNTY HWY 152,43.207106,-77.679537,,,,,,0,
3333,3333,Ridge & Palm,STATE HWY 104 & PALM ST,43.197526,-77.633309,,,,,,0,
3336,3336,Ridge & 2373 Ridge Petco,STATE HWY 104 & UNNAMED ST,43.209037,-77.691473,,,,,,0,
3337,3337,Ridge & Primrose,,43.196812,-77.631978,,,,,,0,
3338,3338,Ridge & Primrose,STATE HWY 104 & PRIMROSE ST,43.196822,-77.632295,,,,,,0,
3344,3344,Ridge & Standish,,43.208439,-77.685774,,,,,,0,
3346,3346,Ridge & Stone,STATE HWY 104 & COUNTY HWY 148,43.205286,-77.66582,,,,,,0,
3356,3356,Ridgeway & Aster,RIDGEWAY AVE & ASTER ST,43.193831,-77.64539,,,,,,0,
3358,3358,Ridgeway & Dewey,RIDGEWAY AVE & DEWEY AVE,43.193777,-77.639827,,,,,,0,
3363,3363,Ridgeway & Lake,,43.193743,-77.629487,,,,,,0,
3373,3373,Ridgeway & Primrose,RIDGEWAY AVE & PRIMROSE ST,43.193759,-77.632253,,,,,,0,
3375,3375,Ridgeway & Ramona,RIDGEWAY AVE & RAMONA ST,43.193826,-77.650399,,,,,,0,
3378,3378,Ridgeway & Westmount,RIDGEWAY AVE & WESTMOUNT ST,43.193834,-77.651388,,,,,,0,
3389,3389,RIT Andrews & Riverknoll Apts,KIMBALL DR & UNNAMED ST,43.082778,-77.685,,,,,,0,
3392,3392,RIT S Lot,,43.081711,-77.679162,,,,,,0,
3417,3417,Rogers & Clinton,ROGERS PKWY & CLINTON AVE N,43.206287,-77.612423,,,,,,0,
3418,3418,Rogers & Seneca,ROGERS PKWY & COUNTY HWY 259,43.206577,-77.60896,,,,,,0,
3419,3419,Roosevelt & Clarkson Parma T L,STATE HWY 18 & BRITTANY LN,43.285487,-77.833503,,,,,,0,
3429,3429,Roosevelt & Walker Lake Ontario,STATE HWY 18 & STATE HWY 260,43.28434,-77.867502,,,,,,0,
3430,3430,Roosevelt & Walker Lake Ontario,STATE HWY 18 & STATE HWY 260,43.284201,-77.866197,,,,,,0,
3432,3432,Route 19 & Hamlin Ctr,STATE HWY 19 & STATE HWY 18,43.295626,-77.920858,,,,,,0,
3433,3433,Route 19 & Hamlin Town Hall,STATE HWY 19 & STATE HWY 18,43.297343,-77.920591,,,,,,0,
3448,3448,Rue De Vl & 121 Rue De Vl,RUE DE VL & US HWY 20,43.122163,-77.592464,,,,,,0,
3451,3451,Samuel McCree & Olean,DR SAMUEL MCCREE WAY & OLEAN ST,43.146572,-77.620619,,,,,,0,
3452,3452,Samuel McCree & Reynolds,,43.146664,-77.625887,,,,,,0,
3453,3453,Samuel McCree & Seward,DR SAMUEL MCCREE WAY & BRONSON CT,43.146671,-77.623188,,,,,,0,
3454,3454,Samuel McCree & Seward,DR SAMUEL MCCREE WAY & SEWARD ST,43.146566,-77.623212,,,,,,0,
3459,3459,Santee & Otis,SANTEE ST & OTIS ST,43.169479,-77.642948,,,,,,0,
3460,3460,Santee & Otis,SANTEE ST & OTIS ST,43.169289,-77.643088,,,,,,0,
3461,3461,Santee & Villa,,43.171714,-77.643098,,,,,,0,
3462,3462,Santee & Villa,,43.171459,-77.642966,,,,,,0,
3464,3464,Saratoga & Ambrose,SARATOGA AVE & AMBROSE ST,43.165377,-77.629805,,,,,,0,
3465,3465,Saratoga & Bloss,SARATOGA AVE & BACKUS ST,43.169682,-77.633001,,,,,,0,
3466,3466,Saratoga & Costar,SARATOGA AVE & COSTAR ST,43.168989,-77.632655,,,,,,0,
3467,3467,Saratoga & Costar,SARATOGA AVE & COSTAR ST,43.168901,-77.632428,,,,,,0,
3469,3469,Saratoga & Jones,SARATOGA AVE & JONES AVE,43.166306,-77.630643,,,,,,0,
3473,3473,Saratoga & Lyell,SARATOGA AVE & LYELL AVE,43.164827,-77.629542,,,,,,0,
3498,3498,Seneca & Bastian,SENECA AVE & BASTIAN ST,43.188855,-77.608558,,,,,,0,
3500,3500,Seneca & Nester,SENECA AVE & NESTER ST,43.188796,-77.608447,,,,,,0,
3501,3501,Seneca & Norton,SENECA AVE & NORTON ST,43.186652,-77.608465,,,,,,0,
3503,3503,Seneca & Reliance,SENECA AVE & RELIANCE ST,43.192372,-77.608826,,,,,,0,
3504,3504,Seneca & Resolute,SENECA AVE & RESOLUTE ST,43.190409,-77.608532,,,,,,0,
3505,3505,Seneca & Resolute,SENECA AVE & NESTER ST,43.190386,-77.608677,,,,,,0,
3507,3507,Seneca & Seville,COUNTY HWY 259 & SEVILLE DR,43.208492,-77.60862,,,,,,0,
3508,3508,Seneca & Seville,COUNTY HWY 259 & SEVILLE DR,43.208331,-77.60846,,,,,,0,
3509,3509,Seneca & Titus,COUNTY HWY 259 & COUNTY HWY 91,43.209739,-77.608717,,,,,,0,
3510,3510,Seneca Manor & Hudson,SENECA MANOR DR & COUNTY HWY 112,43.193876,-77.600739,,,,,,0,
3513,3513,Seneca Manor & Keeler Pk Apts,SENECA MANOR DR & RAMP,43.194087,-77.601966,,,,,,0,
3514,3514,Seneca Manor & Keeler Pk Apts,SENECA MANOR DR & COUNTY HWY 112,43.193977,-77.602249,,,,,,0,
3535,3535,South & Alexander,SOUTH AVE & ALEXANDER ST,43.146116,-77.60559,,,,,,0,
3537,3537,South & Averill,SOUTH AVE & AVERILL AVE,43.144022,-77.604926,,,,,,0,
3538,3538,South & Averill,SOUTH AVE & AVERILL AVE,43.144167,-77.604869,,,,,,0,
3539,3539,South & Bellevue,SOUTH AVE & BELLEVUE DR,43.135308,-77.607815,,,,,,0,
3540,3540,South & Bellevue,SOUTH AVE & BELLEVUE DR,43.135383,-77.607576,,,,,,0,
3542,3542,South & Broad,,43.155687,-77.608548,,,,,,0,
3543,3543,South & Byron,SOUTH AVE & STATE HWY 15,43.148089,-77.605974,,,,,,0,
3544,3544,South & Caroline,,43.140479,-77.604988,,,,,,0,
3545,3545,South & Cedar,STATE HWY 18 & CEDAR TER,43.282098,-77.79128,,,,,,0,
3546,3546,South & Comfort,SOUTH AVE & COMFORT ST,43.146594,-77.605544,,,,,,0,
3547,3547,South & Comfort,SOUTH AVE & COMFORT ST,43.147334,-77.605919,,,,,,0,
3548,3548,South & Court,STATE HWY 31 & COMFORT ST,43.154268,-77.607927,,,,,,0,
3549,3549,South & Cypress,SOUTH AVE & CYPRESS ST,43.139898,-77.605508,,,,,,0,
3550,3550,South & Elmwood,SOUTH AVE & UNNAMED ST,43.125072,-77.614246,,,,,,0,
3551,3551,South & Elmwood,SOUTH AVE & ELMWOOD AVE,43.124654,-77.614283,,,,,,0,
3554,3554,South & Gregory,SOUTH AVE & FORT HILL TER,43.141508,-77.604414,,,,,,0,
3555,3555,South & Gregory,SOUTH AVE & GREGORY ST,43.142088,-77.604493,,,,,,0,
3556,3556,South & Hamilton,SOUTH AVE & HAMILTON ST,43.14505,-77.605281,,,,,,0,
3557,3557,South & Hamilton,SOUTH AVE & HAMILTON ST,43.144882,-77.605104,,,,,,0,
3558,3558,South & Hickory,SOUTH AVE & HICKORY ST,43.143092,-77.604775,,,,,,0,
3559,3559,South & Highland,SOUTH AVE & HIGHLAND AVE,43.130221,-77.610935,,,,,,0,
3560,3560,South & Highland,SOUTH AVE & HIGHLAND AVE,43.129961,-77.6109,,,,,,0,
3562,3562,South & Langslow,SOUTH AVE & LANGSLOW ST,43.126172,-77.613402,,,,,,0,
3563,3563,South & Langslow,SOUTH AVE & LANGSLOW ST,43.126609,-77.613351,,,,,,0,
3564,3564,South & Linden,SOUTH AVE & LINDEN ST,43.138779,-77.605938,,,,,,0,
3565,3565,South & Linden,SOUTH AVE & LINDEN ST,43.138989,-77.605971,,,,,,0,
3566,3566,South & Mt Hope,SOUTH AVE & STATE HWY 15,43.148424,-77.606218,,,,,,0,
3567,3567,South & Overlook,STATE HWY 18 & OVERLOOK DR,43.283146,-77.791466,,,,,,0,
3568,3568,South & Pavilion,SOUTH AVE & PAVILION ST,43.131116,-77.610292,,,,,,0,
3569,3569,South & Reservoir,SOUTH AVE & RESERVOIR AVE,43.131643,-77.609709,,,,,,0,
3570,3570,South & Reservoir,SOUTH AVE & RESERVOIR AVE,43.131917,-77.609691,,,,,,0,
3572,3572,South & Rockingham,SOUTH AVE & ROCKINGHAM ST,43.136724,-77.607073,,,,,,0,
3573,3573,South & Rockingham,SOUTH AVE & ROCKINGHAM ST,43.13708,-77.607044,,,,,,0,
3574,3574,South & Sanford,SOUTH AVE & SANFORD ST,43.140818,-77.60497,,,,,,0,
3577,3577,South & Stewart,SOUTH AVE & STEWART ST,43.127455,-77.612612,,,,,,0,
3578,3578,South & Village II,STATE HWY 18 & VILLAGE II DR,43.285682,-77.791408,,,,,,0,
3579,3579,South & Village II,STATE HWY 18 & VILLAGE II DR,43.285753,-77.791597,,,,,,0,
3580,3580,South & Wall,SOUTH AVE & WALL ST,43.128677,-77.611795,,,,,,0,
3581,3581,South & Wall,SOUTH AVE & WALL ST,43.128963,-77.611841,,,,,,0,
3585,3585,Spencerport & 93 Spencerport,STATE HWY 31 & POPLAR GARDEN LN,43.165618,-77.692837,,,,,,0,
3591,3591,Spencerport & Dunn Tower,STATE HWY 31 & DUNN TOWER DR,43.167576,-77.697137,,,,,,0,
3596,3596,Spencerport & Gateway Ent,STATE HWY 31,43.167738,-77.697805,,,,,,0,
3600,3600,Spencerport & Howard,STATE HWY 31 & COUNTY HWY 210,43.165139,-77.69224,,,,,,0,
3606,3606,Spencerport & Long Pond,STATE HWY 31 & BOWERY ST,43.169038,-77.700243,,,,,,0,
3619,3619,Spencerport & Westport Manor Apts,STATE HWY 31 & POPLAR GARDEN LN,43.168701,-77.699871,,,,,,0,
3622,3622,St Bernards Dr & Back Bldg 4,ST BERNARDS CIR & SACKETT RD,43.209572,-77.628493,,,,,,0,
3623,3623,St Bernards Dr & Back Bldg 5,ST BERNARDS CIR & SACKETT RD,43.208382,-77.628809,,,,,,0,
3626,3626,St Paul & 1835 St Paul,,43.189473,-77.619552,,,,,,0,
3627,3627,St Paul & 2122 St Paul,SAINT PAUL ST & PARKING LOT,43.195212,-77.617902,,,,,,0,
3628,3628,St Paul & 2122 St Paul,,43.195089,-77.61814,,,,,,0,
3638,3638,St Paul & Avenue A,SAINT PAUL ST & AVENUE A W,43.177728,-77.625158,,,,,,0,
3639,3639,St Paul & Avenue A,SAINT PAUL ST & AVENUE A W,43.177504,-77.624967,,,,,,0,
3640,3640,St Paul & Avenue C,SAINT PAUL ST & AVENUE C,43.17917,-77.625013,,,,,,0,
3641,3641,St Paul & Avenue C,SAINT PAUL ST & AVENUE C,43.179478,-77.625208,,,,,,0,
3642,3642,St Paul & Avenue E,,43.181226,-77.625296,,,,,,0,
3643,3643,St Paul & Avenue E,SAINT PAUL ST & AVENUE E ST,43.181076,-77.625028,,,,,,0,
3646,3646,St Paul & Bausch,SAINT PAUL ST & LOWELL ST,43.16743,-77.617152,,,,,,0,
3661,3661,St Paul & Clifford,SAINT PAUL ST & CLIFFORD AVE,43.173904,-77.623814,,,,,,0,
3663,3663,St Paul & Collingwood,SAINT PAUL ST & SENECA PARK,43.196812,-77.617399,,,,,,0,
3666,3666,St Paul & Covington,,43.203658,-77.618643,,,,,,0,
3668,3668,St Paul & Daley,COUNTY HWY 122 & DALEY BLVD,43.207725,-77.61515,,,,,,0,
3669,3669,St Paul & Daley,COUNTY HWY 122 & DALEY BLVD,43.207122,-77.615525,,,,,,0,
3670,3670,St Paul & Dorbeth,SAINT PAUL ST & DORBETH RD,43.183028,-77.62505,,,,,,0,
3671,3671,St Paul & Dorbeth,SAINT PAUL ST & DORBETH RD,43.182778,-77.624946,,,,,,0,
3672,3672,St Paul & Dowling,SAINT PAUL ST & DOWLING PL,43.164938,-77.614374,,,,,,0,
3677,3677,St Paul & Evergreen,SAINT PAUL ST & EVERGREEN ST,43.173144,-77.623352,,,,,,0,
3686,3686,St Paul & Hart,SAINT PAUL ST & HART ST,43.170185,-77.620143,,,,,,0,
3687,3687,St Paul & Hart,SAINT PAUL ST & HART ST,43.17047,-77.620162,,,,,,0,
3698,3698,St Paul & Maplehurst,SAINT PAUL BLVD & MAPLEHURST RD,43.204864,-77.61785,,,,,,0,
3703,3703,St Paul & Norton,SAINT PAUL ST & NORTON ST,43.18625,-77.622788,,,,,,0,
3717,3717,St Paul & Rawlinson,COUNTY HWY 122 & RAWLINSON RD,43.201712,-77.618706,,,,,,0,
3718,3718,St Paul & Rawlinson,COUNTY HWY 122 & RAWLINSON RD,43.201883,-77.618986,,,,,,0,
3719,3719,St Paul & Ridge,SAINT PAUL ST & RIDGE RD E,43.192885,-77.617849,,,,,,0,
3720,3720,St Paul & Ridge,,43.192599,-77.618117,,,,,,0,
3723,3723,St Paul & Route 104,,43.190445,-77.618662,,,,,,0,
3724,3724,St Paul & Route 104,,43.190405,-77.618507,,,,,,0,
3726,3726,St Paul & Saranac,SAINT PAUL ST & SARANAC ST,43.184388,-77.624812,,,,,,0,
3727,3727,St Paul & Saranac,SAINT PAUL ST & SARANAC ST,43.184118,-77.62469,,,,,,0,
3729,3729,St Paul & Scholfield,,43.205524,-77.617222,,,,,,0,
3731,3731,St Paul & Scrantom,SAINT PAUL ST & SCRANTOM ST,43.171941,-77.622024,,,,,,0,
3732,3732,St Paul & Seth Green,SAINT PAUL ST & SETH GREEN DR,43.186784,-77.622431,,,,,,0,
3733,3733,St Paul & Simpson,COUNTY HWY 122 & SIMPSON RD,43.199677,-77.618061,,,,,,0,
3734,3734,St Paul & Simpson,COUNTY HWY 122 & SIMPSON RD,43.199809,-77.618299,,,,,,0,
3735,3735,St Paul & St Bridgets,SAINT PAUL ST & SAINT BRIDGETS DR,43.164738,-77.614019,,,,,,0,
3746,3746,St Paul & Titus,COUNTY HWY 122 & TITUS AVE,43.210073,-77.612773,,,,,,0,
3747,3747,St Paul & Titus,COUNTY HWY 122 & TITUS AVE,43.210003,-77.613011,,,,,,0,
3748,3748,St Paul & Strong,,43.188809,-77.62009,,,,,,0,
3753,3753,St Paul & Ward,SAINT PAUL ST & WARD ST,43.163195,-77.612492,,,,,,0,
3754,3754,St Paul & Ward,SAINT PAUL ST & WARD ST,43.163372,-77.612407,,,,,,0,
3758,3758,St Paul & Zoo Ent,,43.197106,-77.617616,,,,,,0,
3761,3761,State & Brown,STATE ST & BROWN ST,43.161834,-77.620217,,,,,,0,
3762,3762,State & Brown,,43.161789,-77.6199,,,,,,0,
3763,3763,State & Church,STATE ST & CHURCH ST,43.157198,-77.614072,,,,,,0,
3764,3764,State & Church,STATE ST & CHURCH ST,43.157043,-77.613603,,,,,,0,
3765,3765,State & Commercial,,43.15926,-77.6163,,,,,,0,
3766,3766,State & Commercial,STATE ST & COMMERCIAL ST,43.159423,-77.616964,,,,,,0,
3767,3767,State & Corinthian,STATE ST,43.156396,-77.613185,,,,,,0,
3769,3769,State & Jay,STATE ST & JAY ST,43.163265,-77.621869,,,,,,0,
3770,3770,State & Platt,STATE ST & PLATT ST,43.160554,-77.618495,,,,,,0,
3771,3771,State & Platt,,43.16029,-77.617915,,,,,,0,
3772,3772,State & Smith,,43.164468,-77.622868,,,,,,0,
3773,3773,State & Vincent,,43.163176,-77.621459,,,,,,0,
3792,3792,Target Plaza & Target Entrance,STATE HWY 250,43.128129,-77.443146,,,,,,0,
3796,3796,Thurston & Arnett,,43.141797,-77.651075,,,,,,0,
3797,3797,Thurston & Arnett,THURSTON RD & ARNETT BLVD,43.142041,-77.65093,,,,,,0,
3800,3800,Thurston & Dunbar,THURSTON RD & DUNBAR ST,43.132665,-77.650838,,,,,,0,
3801,3801,Thurston & Enterprise,THURSTON RD & ENTERPRISE ST,43.134107,-77.650855,,,,,,0,
3802,3802,Thurston & Ernestine,THURSTON RD & ERNESTINE ST,43.131707,-77.650848,,,,,,0,
3803,3803,Thurston & Flanders,THURSTON RD & FLANDERS ST,43.135874,-77.650862,,,,,,0,
3804,3804,Thurston & Flanders,,43.136018,-77.651063,,,,,,0,
3806,3806,Thurston & Lehigh,,43.137188,-77.65106,,,,,,0,
3807,3807,Thurston & Margaret,,43.132617,-77.651005,,,,,,0,
3810,3810,Thurston & Midvale,THURSTON RD & MIDVALE TER,43.134053,-77.651027,,,,,,0,
3811,3811,Thurston & Milton,THURSTON RD & MILTON ST,43.137876,-77.650888,,,,,,0,
3812,3812,Thurston & Ravenwood,THURSTON RD & RAVENWOOD AVE,43.138552,-77.65092,,,,,,0,
3813,3813,Thurston & Ravenwood,,43.138767,-77.65109,,,,,,0,
3816,3816,Titus & Briarwood,COUNTY HWY 91 & BRIARWOOD DR,43.210623,-77.603306,,,,,,0,
3819,3819,Titus & Curtice,COUNTY HWY 91 & CURTICE RD,43.210497,-77.602448,,,,,,0,
3820,3820,Titus & Curtice,COUNTY HWY 91 & CURTICE RD,43.210642,-77.602127,,,,,,0,
3827,3827,Titus & Mayfair,COUNTY HWY 91 & MAYFAIR DR,43.210355,-77.606429,,,,,,0,
3828,3828,Titus & Mayfair,COUNTY HWY 91 & MAYFAIR DR,43.210499,-77.606223,,,,,,0,
3834,3834,Titus & Seneca,COUNTY HWY 91 & COUNTY HWY 259,43.210329,-77.608123,,,,,,0,
3852,3852,Union & Central Park,UNION ST N & CENTRAL PARK,43.168261,-77.589337,,,,,,0,
3854,3854,Union & Kenilworth,UNION ST N & KENILWORTH TER,43.161297,-77.593337,,,,,,0,
3855,3855,Union & Lyndhurst,UNION ST N & LYNDHURST ST,43.160742,-77.59391,,,,,,0,
3862,3862,Union & Ontario,UNION ST N & ONTARIO ST,43.16321,-77.592492,,,,,,0,
3863,3863,Union & Ontario,UNION ST N & ONTARIO ST,43.163052,-77.592406,,,,,,0,
3866,3866,Union & Trinidad,UNION ST N & TRINIDAD ST,43.166518,-77.590562,,,,,,0,
3867,3867,Union & Opp Wangman,UNION ST N & WANGMAN ST,43.166576,-77.590348,,,,,,0,
3869,3869,University & 1357 University,UNIVERSITY AVE & EAST BLVD,43.150149,-77.566233,,,,,,0,
3872,3872,University & Alexander,UNIVERSITY AVE & ALEXANDER ST,43.15828,-77.592573,,,,,,0,
3873,3873,University & Alexander,UNIVERSITY AVE & ALEXANDER ST,43.158273,-77.592971,,,,,,0,
3874,3874,University & Atlantic,UNIVERSITY AVE & ATLANTIC AVE,43.155802,-77.584323,,,,,,0,
3875,3875,University & Culver,UNIVERSITY AVE & OLIVER ST,43.151774,-77.57157,,,,,,0,
3876,3876,University & Culver,UNIVERSITY AVE & CULVER RD,43.151799,-77.57107,,,,,,0,
3877,3877,University & Culver,UNIVERSITY AVE & CULVER RD,43.151489,-77.569901,,,,,,0,
3878,3878,University & East Blvd,UNIVERSITY AVE & EAST BLVD,43.150726,-77.567965,,,,,,0,
3880,3880,University & Gleason Works,UNIVERSITY AVE & UNNAMED ST,43.153259,-77.576421,,,,,,0,
3881,3881,University & Gleason Works,UNIVERSITY AVE & GRANGER PL,43.153517,-77.576531,,,,,,0,
3882,3882,University & Goodman,UNIVERSITY AVE & GOODMAN ST N,43.156676,-77.587239,,,,,,0,
3883,3883,University & Goodman,UNIVERSITY AVE & GOODMAN ST N,43.15623,-77.586292,,,,,,0,
3887,3887,University & Merriman,UNIVERSITY AVE & MERRIMAN ST,43.155103,-77.582531,,,,,,0,
3888,3888,University & Oliver,UNIVERSITY AVE & OLIVER ST,43.152086,-77.572569,,,,,,0,
3889,3889,University & Oliver,UNIVERSITY AVE & OLIVER ST,43.152244,-77.572567,,,,,,0,
3890,3890,University & Portsmouth,UNIVERSITY AVE & PORTSMOUTH TER,43.154512,-77.580637,,,,,,0,
3891,3891,University & Portsmouth,UNIVERSITY AVE & PORTSMOUTH TER,43.154682,-77.580725,,,,,,0,
3892,3892,University & Prince,,43.157618,-77.590418,,,,,,0,
3893,3893,University & Prince,UNIVERSITY AVE & PRINCE ST,43.157641,-77.590844,,,,,,0,
3895,3895,University & Rundel,UNIVERSITY AVE & RUNDEL PARK,43.155746,-77.58456,,,,,,0,
3898,3898,University & Strathallan,UNIVERSITY AVE & STRATHALLAN PARK,43.156807,-77.588114,,,,,,0,
3899,3899,University & Union,UNIVERSITY AVE & N UNION ST,43.158826,-77.594328,,,,,,0,
3900,3900,University & Union,UNIVERSITY AVE & N UNION ST,43.158916,-77.595112,,,,,,0,
3910,3910,Walmart Hudson,WALMART HUDSON CIR & NEWCASTLE RD,43.1938,-77.597673,,,,,,0,
3911,3911,Waring & Ashwood,WARING RD & ASHWOOD DR,43.184265,-77.56655,,,,,,0,
3912,3912,Waring & Blakeslee,WARING RD & BLAKESLEE ST,43.187245,-77.570443,,,,,,0,
3913,3913,Waring & Fieldwood,WARING RD & FIELDWOOD DR,43.183613,-77.565693,,,,,,0,
3914,3914,Waring & Lyceum,WARING RD & LYCEUM ST,43.185406,-77.567988,,,,,,0,
3920,3920,Washington & Despatch,STATE HWY 153 & DESPATCH DR,43.116676,-77.488427,,,,,,0,
3925,3925,Washington & Linden,STATE HWY 153 & COUNTY HWY 15,43.118481,-77.486774,,,,,,0,
3937,3937,Webster & Garson,,43.163995,-77.582207,,,,,,0,
3938,3938,Webster & Grand,WEBSTER AVE & GRAND AVE,43.164384,-77.581216,,,,,,0,
3940,3940,Webster & Parsells,WEBSTER AVE & PARSELLS AVE,43.165476,-77.579348,,,,,,0,
3941,3941,Webster & Ripley,,43.165314,-77.579909,,,,,,0,
3949,3949,Wegmans Penfield Park & Ride,,43.130441,-77.444742,,,,,,0,
3960,3960,West & Algonquin,STATE HWY 33 & ALGONQUIN TER,43.150081,-77.638391,,,,,,0,
3961,3961,West & Ames,STATE HWY 33 & AMES ST,43.150043,-77.643671,,,,,,0,
3962,3962,West & Appleton,STATE HWY 33 & APPLETON ST,43.149942,-77.64406,,,,,,0,
3965,3965,West & Chili,STATE HWY 33 & YORK ST,43.149957,-77.638065,,,,,,0,
3968,3968,West & Depew,WEST AVE & DEPEW ST,43.149913,-77.653525,,,,,,0,
3969,3969,West & Depew,WEST AVE & DEPEW ST,43.150057,-77.65341,,,,,,0,
3972,3972,West & Gardiner,STATE HWY 33 & GARDINER AVE,43.149883,-77.651302,,,,,,0,
3973,3973,West & Gardiner,STATE HWY 33 & GARDINER AVE,43.150071,-77.650853,,,,,,0,
3974,3974,West & Hamlin Parma T L,STATE HWY 18 & COUNTY HWY 228,43.285661,-77.833556,,,,,,0,
3975,3975,West & Hancock,STATE HWY 33 & HANCOCK ST,43.150063,-77.642511,,,,,,0,
3976,3976,West & Hancock,STATE HWY 33 & HANCOCK ST,43.149932,-77.642808,,,,,,0,
3977,3977,West & Hobart,STATE HWY 33 & HOBART ST,43.149959,-77.64884,,,,,,0,
3978,3978,West & Hobart,STATE HWY 33 & HOBART ST,43.150055,-77.648733,,,,,,0,
3986,3986,West & Lincoln,WEST AVE & LINCOLN AVE,43.150053,-77.655327,,,,,,0,
3992,3992,West & Thorndale,STATE HWY 33 & THORNDALE TER,43.150056,-77.646101,,,,,,0,
3993,3993,West & Thorndale,STATE HWY 33 & THORNDALE TER,43.149961,-77.646568,,,,,,0,
3997,3997,W Henrietta & 3093 W Henrietta,STATE HWY 15 & FURLONG RD,43.091208,-77.63475,,,,,,0,
4005,4005,W Henrietta & Arc of Monroe,STATE HWY 15 & W HENRIETTA RD,43.098186,-77.631045,,,,,,0,
4007,4007,W Henrietta & Brighton Campus Pk Dr,STATE HWY 15 & UNNAMED ST,43.11004,-77.624728,,,,,,0,
4008,4008,W Henrietta & Brighton Henrietta TL,STATE HWY 15 & COUNTY HWY 85,43.094293,-77.633066,,,,,,0,
4009,4009,W Henrietta & Brighton Henrietta TL,STATE HWY 15 & COUNTY HWY 85,43.094494,-77.632713,,,,,,0,
4012,4012,W Henrietta & Centre,STATE HWY 15 & CENTRE DR,43.095645,-77.632351,,,,,,0,
4016,4016,W Henrietta & Crittenden,STATE HWY 15 & COUNTY HWY 83,43.104066,-77.627773,,,,,,0,
4017,4017,W Henrietta & Doncaster,STATE HWY 15 & DONCASTER RD,43.109028,-77.625536,,,,,,0,
4018,4018,W Henrietta & Dorschel Toyota,,43.0866,-77.637287,,,,,,0,
4020,4020,W Henrietta & Northern  Firehall,STATE HWY 15 & NORTHERN DR,43.097805,-77.630973,,,,,,0,
4022,4022,W Henrietta & Cycle Stop,W HENRIETTA RD & STATE HWY 15,43.099109,-77.630308,,,,,,0,
4023,4023,W Henrietta & Jefferson,STATE HWY 15 & RAMP,43.086464,-77.637009,,,,,,0,
4024,4024,W Henrietta & Jefferson,STATE HWY 15 & RAMP,43.088936,-77.636012,,,,,,0,
4026,4026,W Henrietta & MCC Applied Tech,W HENRIETTA RD & STATE HWY 15,43.102542,-77.628773,,,,,,0,
4029,4029,W Henrietta & Southland,STATE HWY 15 & SOUTHLAND DR,43.110374,-77.624806,,,,,,0,
4031,4031,W Henrietta & Sunnyside,STATE HWY 15 & SUNNYSIDE DR,43.108826,-77.625387,,,,,,0,
4037,4037,Westfall & E Henrietta,WESTFALL RD & STATE HWY 15A,43.114545,-77.617674,,,,,,0,
4102,4102,Winton & 180 Winton,WINTON RD S & HILLSIDE AVE,43.1418,-77.557203,,,,,,0,
4103,4103,Winton & 1840 Winton,WINTON RD S & RAMP,43.109569,-77.574691,,,,,,0,
4104,4104,Winton & 1840 Winton,WINTON RD S & RAMP,43.110054,-77.574827,,,,,,0,
4113,4113,Winton & Balsam,,43.151201,-77.552252,,,,,,0,
4116,4116,Winton & Brentwood,WINTON RD N & BRENTWOOD ST,43.147903,-77.553856,,,,,,0,
4124,4124,Winton & Dalkeith,WINTON RD N & DALKEITH RD,43.164396,-77.545152,,,,,,0,
4127,4127,Winton & East,WINTON RD N & UNIVERSITY AVE,43.146089,-77.555151,,,,,,0,
4133,4133,Winton & French,,43.106182,-77.57677,,,,,,0,
4136,4136,Winton & Halstead,WINTON RD N & HALSTEAD ST,43.147564,-77.55422,,,,,,0,
4140,4140,Winton & Hillside,WINTON RD S & HILLSIDE AVE,43.142971,-77.556565,,,,,,0,
4141,4141,Winton & Hillside,WINTON RD S & HILLSIDE AVE,43.143221,-77.556658,,,,,,0,
4143,4143,Winton & Humboldt,,43.152853,-77.551367,,,,,,0,
4147,4147,Winton & Merchants,WINTON RD N & MERCHANTS RD,43.159722,-77.547615,,,,,,0,
4154,4154,Winton & Nunda,WINTON RD S & NUNDA BLVD,43.139935,-77.558472,,,,,,0,
4155,4155,Winton & Nunda,WINTON RD S & NUNDA BLVD,43.139647,-77.558392,,,,,,0,
4157,4157,Winton & Royleston,WINTON RD N & ROYLESTON RD,43.161727,-77.546598,,,,,,0,
4158,4158,Winton & San Gabriel,WINTON RD S & SAN GABRIEL DR,43.138043,-77.559467,,,,,,0,
4159,4159,Winton & San Gabriel,WINTON RD S & SAN GABRIEL DR,43.137745,-77.559418,,,,,,0,
4162,4162,Winton & University,WINTON RD N & UNIVERSITY AVE,43.146063,-77.554959,,,,,,0,
4177,4177,Woodbury & Chestnut,,43.1532,-77.603047,,,,,,0,
4178,4178,Woodman & Clifford,WOODMAN PARK & CLIFFORD AVE,43.176633,-77.560313,,,,,,0,
4179,4179,Woodman & Culver,WOODMAN PARK & FERNWOOD PARK,43.179389,-77.560437,,,,,,0,
4181,4181,Wren & Driving Park,WREN ST & DRIVING PARK AVE,43.180515,-77.646976,,,,,,0,
4182,4182,Wren & Driving Park,,43.18055,-77.646809,,,,,,0,
4183,4183,Wren & Lexington,WREN ST & DRIVING PARK AVE,43.179737,-77.646837,,,,,,0,
4189,4189,Zoo Road & St Paul,SENECA PARK & SAINT PAUL ST,43.197086,-77.617991,,,,,,0,
4191,4191,Highlands of Brighton,,43.112994,-77.593905,,,,,,0,
4201,4201,Genesee & Brooks,,43.130281,-77.636294,,,,,,0,
4202,4202,Wilson Commencement HS,WILSON COMM HS CIR,43.140413,-77.636683,,,,,,0,
4204,4204,Pittsford Mendon High School,UNNAMED ST,43.061096,-77.519015,,,,,,0,
4205,4205,Pittsford Sutherland High School,,43.088926,-77.522797,,,,,,0,
4206,4206,East High Main Loop,,43.159362,-77.563985,,,,,,0,
4207,4207,Browncroft & Knollbrook,KNOLLBROOK RD,43.157406,-77.537376,,,,,,0,
4208,4208,Landing Heights,,43.159685,-77.534135,,,,,,0,
4209,4209,Mercy High School,Our Lady of Mercy High School Loop,43.148237,-77.537051,,,,,,0,
4216,4216,Sea Breeze Amusement Park,,43.233011,-77.544047,,,,,,0,
4217,4217,Bishop Kearney High School,BISHOP KEARNEY CIR,43.201912,-77.57909,,,,,,0,
4218,4218,Lac De Ville & Westfall,LAC DE VILLE BLVD,43.113605,-77.592756,,,,,,0,
4235,L4235,Rush Rhees Library,UNNAMED ST,43.128464,-77.627812,,,,,,0,
4250,4250,Latta & Island Cottage,STATE HWY 18 & COUNTY HWY 134,43.252945,-77.664925,,,,,,0,
4264,4264,Empire & Bay Towne Plaza,STATE HWY 404 & RAMP,43.191664,-77.502828,,,,,,0,
4283,4283,Landing & Blossom,LANDING RD N & STATE RTE 941V,43.149198,-77.52821,,,,,,0,
4294,4294,Clarkson Highway Department,CLARKSON PARK - RIDE CIR,43.235121,-77.926484,,,,,,0,
4296,4296,Pittsford Palmyra & Cuyler,STATE HWY 21 & CUYLER ST,43.063524,-77.231393,,,,,,0,
4297,4297,Pittsford Palmyra & Ayrault,STATE HWY 31 & COUNTY HWY 21,43.077583,-77.477685,,,,,,0,
4298,4298,Pittsford Palmyra & Mosley,STATE HWY 31 & UNNAMED ST,43.069222,-77.442702,,,,,,0,
4299,4299,Pittsford Palmyra & William,STATE HWY 21 & WILLIAM ST,43.063704,-77.230997,,,,,,0,
4312,4312,Rochester Tech Park Connection Hub,,43.152689,-77.734512,,,,,,0,
4316,4316,School Of The Arts,PRINCE ST & ERION CRES,43.15858,-77.590289,,,,,,0,
4322,4322,Goodman & College,COLLEGE AVE & GOODMAN ST N,43.159034,-77.585219,,,,,,0,
4347,4347,Strong Ties,,43.099758,-77.632147,,,,,,0,
4359,4359,3240 Chili Ave,STATE HWY 33A & CHILI AVE,43.104273,-77.752256,,,,,,0,
4360,4360,Clifford & Culver,CLIFFORD AVE & CULVER RD,43.176323,-77.558163,,,,,,0,
4369,4369,Monroe & 962 Monroe,STATE HWY 31 & SHEPARD ST,43.140823,-77.583572,,,,,,0,
4374,4374,W Henrietta & 2640 W Henrietta,STATE HWY 15 & W HENRIETTA RD,43.100256,-77.629997,,,,,,0,
4386,4386,4560 Fairport Nine Mile Pt. Rd,NINE MILE POINT RD & EAGLESFIELD WAY,43.112469,-77.441575,,,,,,0,
4390,4390,Monroe High School,ALEXANDER ST,43.147758,-77.598161,,,,,,0,
4470,4470,Franklin High School,NORTON ST,43.186983,-77.597452,,,,,,0,
4471,4471,Jay & Verona,,43.161769,-77.623596,,,,,,0,
4473,4473,Brown & Hertel,BROWN ST & HERTEL ST,43.152443,-77.633227,,,,,,0,
4521,4521,Main & Union,MAIN ST E & UNION ST N,43.159603,-77.59482,,,,,,0,
4593,4593,Washington & Walnut,N WASHINGTON ST & COUNTY HWY 15,43.11811,-77.487443,,,,,,0,
4594,4594,Chili & Chestnut Ridge,CHILI AVE & STATE HWY 33A,43.115535,-77.729289,,,,,,0,
4673,4673,Jefferson & Frontier Plaza,,43.087039,-77.600743,,,,,,0,
4838,4838,Charlotte High School,UNNAMED ST,43.245928,-77.618134,,,,,,0,
4839,4839,Pittsford Palmyra & Mill,STATE HWY 31 & PITTSFORD PALMYRA RD,43.075446,-77.468244,,,,,,0,
4840,4840,Pittsford Palmyra & Kreag,STATE HWY 31 & PITTSFORD PALMYRA RD,43.073894,-77.461332,,,,,,0,
4841,4841,Pittsford Palmyra & Mountain Rise,STATE HWY 31 & PITTSFORD PALMYRA RD,43.073432,-77.458953,,,,,,0,
4842,4842,Pittsford Palmyra  Opp Southcross,PITTSFORD PALMYRA RD & STATE HWY 31,43.073025,-77.457296,,,,,,0,
4843,4843,Pittsford Palmyra & Blackwatch,STATE ROUTE 31 & STATE HWY 31,43.070285,-77.447929,,,,,,0,
4844,4844,Pittsford Palmyra & Southcross,PITTSFORD PALMYRA RD & SOUTHCROSS TRL,43.073188,-77.457072,,,,,,0,
4845,4845,Pittsford Palmyra Opp Mountain Rise,PITTSFORD PALMYRA RD & MOUNTAIN RISE,43.073593,-77.458844,,,,,,0,
4846,4846,Pittsford Palmyra & Kreag,PITTSFORD PALMYRA RD & MOUNTAIN RISE,43.073987,-77.460631,,,,,,0,
4847,4847,Monroe & S Main,MONROE AVE & N MAIN ST,43.091133,-77.516325,,,,,,0,
4862,4862,Empire & 1517 Empire,STATE HWY 404 & EMPIRE BLVD,43.178641,-77.509777,,,,,,0,
4863,4863,Empire & opp 1517 Empire,EMPIRE BLVD & STATE HWY 404,43.178528,-77.510153,,,,,,0,
4870,4870,RIT Barnes & Noble (Bldg 100),,43.092002,-77.655155,,,,,,0,
4871,4871,RIT John & Perkins,,43.086668,-77.657024,,,,,,0,
4875,4875,RIT Park Point North,,43.092374,-77.658401,,,,,,0,
4876,4876,Pearl & Alexander,PEARL ST & ALEXANDER ST,43.14705,-77.599051,,,,,,0,
4879,4879,RIT Lot K Southbound,ANDREWS MEMORIAL DR,43.086069,-77.666076,,,,,,0,
4895,4895,Empire & Helendale,,43.176719,-77.545512,,,,,,0,
4897,4897,W Henrietta & 3150 W Henrietta,STATE HWY 15 & UNNAMED ST,43.089387,-77.635383,,,,,,0,
4910,4910,Portland & Ridge,PORTLAND AVE,43.196499,-77.584793,,,,,,0,
4911,4911,Genesee & Valley Court Apartments,,43.126955,-77.63822,,,,,,0,
4912,4912,Penfield & Opp Panorama Plaza,,43.134509,-77.494584,,,,,,0,
4913,4913,Genesee & opp Congress,,43.129178,-77.636734,,,,,,0,
4917,4917,Mt. Hope & 1372 Mt. Hope,,43.122362,-77.618476,,,,,,0,
4930,4930,Ridge & 1736 Ridge,,43.200904,-77.570836,,,,,,0,
4932,4932,Chestnut & Main,,43.158196,-77.602494,,,,,,0,
4933,4933,Dewey & Lexington,,43.178714,-77.639573,,,,,,0,
4942,4942,Empire & Stonehenge,,43.177016,-77.540418,,,,,,0,
4943,4943,Main & opp Minges,,43.161903,-77.582255,,,,,,0,
4945,4945,Chilli & Pearlwood,,43.138207,-77.672285,,,,,,0,
4946,4946,Genesee Pk & 69 Genesee Pk,,43.126324,-77.64084,,,,,,0,
4949,4949,Chilli & Archer,,43.113774,-77.732809,,,,,,0,
4951,4951,Chilli & Mercedes,,43.109916,-77.740592,,,,,,0,
4952,4952,Jay & Grape,,43.159447,-77.628847,,,,,,0,
4956,4956,Lake Ave & Hanford Landing Rd,,43.200477,-77.627455,,,,,,0,
4962,4962,Lake & Charlotte Harbortown,,43.254132,-77.611792,,,,,,0,
4963,4963,Lake & Harding,,43.224105,-77.627141,,,,,,0,
4965,4965,Lake & Cheltenham,,43.221638,-77.62811,,,,,,0,
4967,4967,East Ave & Scio-Broadway,,43.156469,-77.600243,,,,,,0,
4968,4968,East & Pitkin,,43.155866,-77.597729,,,,,,0,
4969,4969,Park & Kirkhaven Business Ctr,,43.151881,-77.594662,,,,,,0,
4974,4974,Lyell & Gloster Rd,,43.164665,-77.670385,,,,,,0,
4981,4981,Carter & Norton,,43.187561,-77.591779,,,,,,0,
4984,4984,Ford & Favor,,43.151931,-77.620374,,,,,,0,
4990,4990,Ridge Rd. & Bernice St,,43.202436,-77.645106,,,,,,0,
4991,4991,Ridge Rd & Dewey,,43.20005,-77.638128,,,,,,0,
5004,5004,Monroe & Union,,43.150121,-77.600017,,,,,,0,
5007,5007,Monroe & Blessed Sacrament,,43.143831,-77.588762,,,,,,0,
5013,L5013,W Henrietta & Time Warner,,43.099108,-77.630314,,,,,,0,
5017,5017,Mt Hope & Comfort St,,43.147056,-77.608064,,,,,,0,
5018,5018,Clinton & 1500 Clinton,,43.187559,-77.613534,,,,,,0,
5019,5019,Ridge & 1024 Ridge Rd,W RIDGE ROAD & NEEDHAM ST,43.203549,-77.654,,,,,,0,
5025,5025,Rogers Pkwy & Seneca Ave,ROGERS PKWY & SENECA AVE,43.206395,-77.60897,,,,,,0,
5028,5028,South & Stewart,,43.12733,-77.612835,,,,,,0,
5032,5032,St Paul & Bertina Forde's Crossing,,43.168902,-77.618568,,,,,,0,
5033,5033,St Paul & Upper Falls,,43.167257,-77.616645,,,,,,0,
5034,5034,St Paul  & Bertina Forde's Crossing,,43.168702,-77.6182,,,,,,0,
5035,5035,St Paul & Huntington Park Apts,,43.175802,-77.624894,,,,,,0,
5044,5044,Elmgrove & opp Initiative,,43.147466,-77.732265,,,,,,0,
5061,5061,Crittenden & White Spruce,,43.105945,-77.618811,,,,,,0,
5063,5063,Mental Health & Wellness,,43.121577,-77.626751,,,,,,0,
5065,5065,Genesee & McCree,,43.146431,-77.635992,,,,,,0,
5066,5066,Jefferson & opp Regional Market,,43.087021,-77.614278,,,,,,0,
5067,5067,Chili & Howard,,43.130589,-77.69017,,,,,,0,
5069,5069,Ridge & opp 1571 Ridge,,43.19949,-77.575748,,,,,,0,
5070,5070,Ridge & farside 1st Mall Entrance,,43.200215,-77.572514,,,,,,0,
5076,5076,West Wayne Plaza,,43.069563,-77.286342,,,,,,0,
5078,5078,Jefferson & E Henrietta,,43.087368,-77.607511,,,,,,0,
5079,5079,East & Gibbs,,43.156898,-77.601689,,,,,,0,
5080,5080,WOI - School 58,,43.159951,-77.598084,,,,,,0,
5081,5081,East & Winthrop,,43.156078,-77.598196,,,,,,0,
5082,5082,East & Scio,,43.156502,-77.599995,,,,,,0,
5083,5083,Greece Ridge Mall Connection Hub,,43.206124,-77.695661,,,,,,0,
5085,5085,Union & East,,43.15675,-77.596042,,,,,,0,
5088,5088,RIT Perkins Crosswalk,,43.086595,-77.659443,,,,,,0,
5099,L5099,Macvittie Union,,42.79682,-77.82239,,,,,,0,
5100,L5100,Bus Shelter-H Lot,,42.802188,-77.823468,,,,,,0,
5101,L5101,Milne Library-Newton,,42.797848,-77.819252,,,,,,0,
5102,L5102,North & Highland-Geneseo,,42.798996,-77.806833,,,,,,0,
5103,L5103,Geneseo Square,,42.795551,-77.792381,,,,,,0,
5104,L5104,Wegmans-Geneseo,,42.797436,-77.784035,,,,,,0,
5105,L5105,Walmart-Geneseo,,42.801983,-77.787293,,,,,,0,
5106,L5106,Burger King-Geneseo,,42.796052,-77.796531,,,,,,0,
5107,L5107,Park St & Welles Hall-Geneseo,,42.794857,-77.819801,,,,,,0,
5108,L5108,MJ Drive,,42.793056,-77.821983,,,,,,0,
5109,L5109,Wayne Hall Shelter,,42.790882,-77.823417,,,,,,0,
5110,L5110,Park St & opposite Welles Hall,,42.794816,-77.819834,,,,,,0,
5111,L5111,Main & Center Northbound-Geneseo,,42.796127,-77.816674,,,,,,0,
5112,L5112,Court & Wadsworth-Geneseo,,42.800792,-77.817708,,,,,,0,
5113,L5113,Opposite Milne Library-Geneseo,,42.797943,-77.819291,,,,,,0,
5121,L5121,Trailways-LATS,,43.162514,-77.608177,,,,,,0,
5122,L5122,Eastview Mall Food Court-LATS,,43.028821,-77.44545,,,,,,0,
5123,L5123,Amtrak Stop-LATS,350 CENTRAL AVE,43.162838,-77.607829,,,,,,0,
5125,L5125,Opposite MJ Drive,,42.793295,-77.822045,,,,,,0,
5126,5126,Dewey Ave Walmart,,43.239077,-77.644606,,,,,,0,
5127,5127,Long Pond & 1404 Long Pond,,43.200604,-77.699142,,,,,,0,
5132,5132,Parma Ctr & Manitou,,43.259153,-77.751873,,,,,,0,
5133,5133,Parma Ctr & Manitou,,43.259025,-77.751803,,,,,,0,
5134,5134,Roosevelt & opp Huntington,,43.289444,-77.906125,,,,,,0,
5135,5135,Roosevelt & Huntington,,43.28951,-77.906357,,,,,,0,
5139,L5139,Dansville Save A Lot,,42.568022,-77.71775,,,,,,0,
5141,L5141,Groveland Station & Church,,42.664966,-77.769948,,,,,,0,
5142,L5142,137 Main - Geneseo,,42.793734,-77.817263,,,,,,0,
5143,L5143,3109 Main - Caledonia,,42.973215,-77.854516,,,,,,0,
5144,L5144,11 E Main - Avon,,42.911681,-77.744187,,,,,,0,
5145,L5145,Groveland Station & opposite Church,,42.664832,-77.770107,,,,,,0,
5146,L5146,Route 36 & Stoner Hill,,42.595843,-77.746246,,,,,,0,
5147,L5147,14 Clara Barton - Dansville,,42.559424,-77.695294,,,,,,0,
5148,L5148,Route 436 & Valley Rd Westbound,,42.558157,-77.760564,,,,,,0,
5149,L5149,6 State - Nunda,,42.579565,-77.942509,,,,,,0,
5150,L5150,Main & Lake - Mt Morris,,42.7245,-77.873245,,,,,,0,
5151,L5151,180 Main - Leicester,,42.772305,-77.894064,,,,,,0,
5154,L5154,Opp 6 State St - Nunda,,42.579573,-77.942754,,,,,,0,
5156,L5156,6207 S Livonia - Conesus,,42.720312,-77.675758,,,,,,0,
5157,L5157,40 Big Tree - Livonia,,42.822017,-77.673031,,,,,,0,
5158,L5158,Opp 5953 Big Tree - Lakeville,,42.83535,-77.70173,,,,,,0,
5159,L5159,7277 W Main - Lima,,42.904706,-77.613352,,,,,,0,
5161,L5161,7351 Route 256 Sparta Community Cen,,42.664634,-77.713901,,,,,,0,
5163,L5163,Route 36 & Route 63 - Gregsville,,42.830493,-77.897239,,,,,,0,
5164,L5164,1 Main - Livonia,,42.822187,-77.673006,,,,,,0,
5167,L5167,Main & opp 180 Main-Leicester,,42.772161,-77.894174,,,,,,0,
5168,L5168,Opp 8022 Main-Springwater,,42.634491,-77.596662,,,,,,0,
5169,L5169,Route 36 & Route 63 - Gregsville,,42.830673,-77.896981,,,,,,0,
5170,L5170,Groveland Correctional Facility,,42.683824,-77.829481,,,,,,0,
5176,5176,Mt Read & Wegmans,,43.226481,-77.659214,,,,,,0,
5178,5178,Dewey & Bancroft,,43.234494,-77.647003,,,,,,0,
5189,L5189,Allegany Hall Loop,,42.798771,-77.822471,,,,,,0,
5190,L5190,Letchworth Dr & Genesee Hall,,42.80116,-77.822763,,,,,,0,
5191,L5191,Letchworth & Court,,42.802046,-77.822533,,,,,,0,
5192,L5192,Q Lot,,42.8033,-77.826424,,,,,,0,
5193,L5193,Court & opp Hillside,,42.802039,-77.821746,,,,,,0,
5194,L5194,D Lot,,42.801119,-77.820722,,,,,,0,
5195,L5195,Erie Hall,,42.800117,-77.820989,,,,,,0,
5196,L5196,Lauderdale Health Center,,42.798686,-77.820332,,,,,,0,
5197,L5197,Wadworth & Court,,42.80065,-77.818138,,,,,,0,
5198,L5198,North & Second,,42.799782,-77.813511,,,,,,0,
5199,L5199,Highland & Oak,,42.797289,-77.807108,,,,,,0,
5200,L5200,Center & Highland,,42.795212,-77.807888,,,,,,0,
5201,L5201,Center & Elm,,42.795802,-77.812353,,,,,,0,
5202,L5202,Center & Second,,42.796031,-77.814272,,,,,,0,
5203,L5203,Center & Main,,42.796259,-77.816646,,,,,,0,
5204,L5204,Main & Park,,42.794773,-77.817218,,,,,,0,
5205,L5205,South & Country,,42.792945,-77.804535,,,,,,0,
5206,L5206,South & Livingston Health Ctr,,42.793928,-77.800568,,,,,,0,
5207,L5207,Tractor Supply,,42.799117,-77.781626,,,,,,0,
5208,L5208,Mobil opp Applebees,,42.800099,-77.782453,,,,,,0,
5209,L5209,Mobil opp Pondside Plaza,,42.8008,-77.781262,,,,,,0,
5210,L5210,Genesee Valley Shopping Center,,42.799413,-77.780987,,,,,,0,
5211,L5211,Ryan Dr & Lakeville Rd,,42.797961,-77.787278,,,,,,0,
5212,L5212,Lakeville Rd & Subway,,42.797171,-77.788997,,,,,,0,
5213,L5213,South & opp Livingston Health Ctr,,42.794053,-77.800593,,,,,,0,
5214,L5214,South & opp Country,,42.793079,-77.804536,,,,,,0,
5215,L5215,South & Temple Hill,,42.792402,-77.807718,,,,,,0,
5216,L5216,Park & South Hall,,42.795176,-77.821363,,,,,,0,
5218,L5218,Schrader Hall,,42.796263,-77.82347,,,,,,0,
5219,L5219,Merritt Athletic Center,,42.796145,-77.824355,,,,,,0,
5220,L5220,T Lot SB,,42.795225,-77.823589,,,,,,0,
5221,L5221,Onondaga Hall,,42.791325,-77.822504,,,,,,0,
5222,L5222,Red Jacket & Suffolk,,42.790821,-77.823891,,,,,,0,
5223,L5223,Red Jacket & Bypass Crosswalk,,42.79287,-77.824342,,,,,,0,
5224,L5224,T Lot NB,,42.795216,-77.82354,,,,,,0,
5226,L5226,Eastview Mall Regal Cinema,,43.02575,-77.445402,,,,,,0,
5229,L5229,Letchworth Dam,,42.735975,-77.907266,,,,,,0,
5230,L5230,Trout Pond Loop,,42.592827,-78.040883,,,,,,0,
5239,5239,Transit Center  - no direction,,43.158185,-77.608229,,,,,,0,
5241,5241,MCC Rear Loop,,43.100586,-77.608872,,,,,,0,
5252,5252,Goodman & Park,120 S GOODMAN ST & PARK AVE,43.150229,-77.589883,,,,,,0,
5253,5253,Goodman & Pearl,499 S GOODMAN ST & PEARL ST,43.143881,-77.593709,,,,,,0,
5254,5254,Goodman & Pearl,516 S GOODMAN ST & PEARL ST,43.143634,-77.593692,,,,,,0,
5255,5255,Goodman & Monroe,387 S GOODMAN ST & MONROE AVE,43.146041,-77.592484,,,,,,0,
5256,5256,Goodman & Monroe,408 S GOODMAN ST & MONROE AVE,43.145677,-77.592543,,,,,,0,
5262,5262,Portland & Ridge,,43.196662,-77.58455,,,,,,0,
5283,WY5283,11 West Court Street Warsaw,,42.742778,-78.133423,,,,,,0,
5289,5289,Empire & Helendale,,43.176914,-77.544793,,,,,,0,
5290,5290,Empire & Shelford,,43.176721,-77.549891,,,,,,0,
5291,6001,TC- Gate 1,48 MORTIMER ST,43.158062,-77.608401,,,0,5700,,1,1
5293,6003,TC- Gate 3,52 MORTIMER ST,43.158081,-77.608311,,,0,5700,,1,3
5294,6004,TC- Gate 4,720 DRIVEWAY,43.158357,-77.608449,,,0,5700,,1,4
5295,6005,TC- Gate 5,56 MORTIMER ST,43.158098,-77.608225,,,0,5700,,1,5
5296,6006,TC- Gate 6,720 DRIVEWAY,43.158369,-77.608353,,,0,5700,,1,6
5297,6007,TC- Gate 7,60 MORTIMER ST,43.158114,-77.608145,,,0,5700,,1,7
5298,6008,TC- Gate 8,720 DRIVEWAY,43.158384,-77.60825,,,0,5700,,1,8
5299,6009,TC- Gate 9,64 MORTIMER ST,43.158129,-77.608055,,,0,5700,,1,9
5300,6010,TC- Gate 10,720 DRIVEWAY,43.158396,-77.60816,,,0,5700,,1,10
5301,6011,TC- Gate 11,68 MORTIMER ST,43.158147,-77.607973,,,0,5700,,1,11
5303,6012,TC- Gate 12,720 DRIVEWAY,43.158409,-77.608076,,,0,5700,,1,12
5304,6013,TC- Gate 13,72 MORTIMER ST,43.158163,-77.607895,,,0,5700,,1,13
5305,6014,TC- Gate 14,720 DRIVEWAY,43.158421,-77.608,,,0,5700,,1,14
5306,6015,TC- Gate 15,76 MORTIMER ST,43.158178,-77.607813,,,0,5700,,1,15
5307,6016,TC- Gate 16,721 DRIVEWAY,43.15843,-77.607927,,,0,5700,,1,16
5308,6017,TC- Gate 17,80 MORTIMER ST,43.158195,-77.607727,,,0,5700,,1,17
5309,6018,TC- Gate 18,721 DRIVEWAY,43.158441,-77.607842,,,0,5700,,1,18
5310,6019,TC- Gate 19,84 MORTIMER ST,43.158211,-77.607647,,,0,5700,,1,19
5311,6020,TC- Gate 20,721 DRIVEWAY,43.158453,-77.607756,,,0,5700,,1,20
5312,6021,TC- Gate 21,88 MORTIMER ST,43.158223,-77.607574,,,0,5700,,1,21
5313,6022,TC- Gate 22,721 DRIVEWAY,43.158464,-77.607674,,,0,5700,,1,22
5314,6023,TC- Gate 23,90 MORTIMER ST,43.158235,-77.607498,,,0,5700,,1,23
5315,6024,TC- Gate 24,721 DRIVEWAY,43.158475,-77.607586,,,0,5700,,1,24
5317,6026,TC- Gate 26,720 DRIVEWAY,43.158484,-77.607496,,,0,5700,,1,26
5323,5323,Ridge & 490 Ridge,,43.195531,-77.605138,,,,,,0,
5324,5324,Seneca Manor & Marburger,,43.1934,-77.607821,,,,,,0,
5325,5325,Seneca Manor & Marburger,,43.193533,-77.607563,,,,,,0,
5326,5326,Seneca Manor & 85 Seneca Manor,,43.193475,-77.605713,,,,,,0,
5327,5327,Seneca Manor & 284 Seneca Manor,,43.193225,-77.604327,,,,,,0,
5328,5328,Seneca Manor & 290 Seneca Manor,,43.193658,-77.604284,,,,,,0,
5329,5329,Seneca Manor & 108 Seneca Manor,,43.193546,-77.606039,,,,,,0,
5333,5333,Ridge & Brambury,,43.196724,-77.594923,,,,,,0,
5334,5334,Ridge & 711 Ridge,,43.196371,-77.598233,,,,,,0,
5336,5336,Central & Clinton,,43.162838,-77.608067,,,,,,0,
5337,5337,Pittsford Mendon High School,,43.059391,-77.517919,,,,,,0,
5338,6002,TC- Gate 2,720 DRIVEWAY,43.158341,-77.608539,,,0,5700,,1,2
5341,6027,Mortimer St. Shelter,104 MORTIMER ST & N CLINTON AVE,43.158237,-77.607219,,,0,5700,,1,
5343,WY5343,Tops Plaza-Warsaw,,42.76574,-78.128533,,,,,,0,
5344,WY5344,Warsaw Plaza-Warsaw,,42.760089,-78.130341,,,,,,0,
5345,WY5345,Kwik Fill (Opp 422 N Main)-Warsaw,,42.757155,-78.131479,,,,,,0,
5346,WY5346,N Main & Purdy-Warsaw,,42.750531,-78.132828,,,,,,0,
5348,WY5348,Linwood & Purdy-Warsaw,,42.750641,-78.134462,,,,,,0,
5349,WY5349,Linwood & Reid-Warsaw,,42.749723,-78.134456,,,,,,0,
5350,WY5350,Linwood & Culver-Warsaw,,42.748953,-78.134458,,,,,,0,
5351,WY5351,Warsaw YMCA,,42.747574,-78.134486,,,,,,0,
5352,WY5352,Linwood & North-Warsaw,,42.745402,-78.133978,,,,,,0,
5353,WY5353,North & N Main-Warsaw,,42.745447,-78.132877,,,,,,0,
5354,WY5354,Main St Municipal Lot-Warsaw,,42.74104,-78.133042,,,,,,0,
5355,WY5355,5 Star Bank Rear-Warsaw,,42.740816,-78.133338,,,,,,0,
5356,WY5356,113 Buffalo St-Warsaw,,42.740311,-78.134877,,,,,,0,
5357,WY5357,Liberty & W Buffalo-Warsaw,,42.739579,-78.137446,,,,,,0,
5358,WY5358,Liberty & W Brooklyn-Warsaw,,42.737473,-78.137402,,,,,,0,
5359,WY5359,W Brooklyn & S Maple-Warsaw,,42.737336,-78.138697,,,,,,0,
5360,WY5360,W Brooklyn & Oak-Warsaw,,42.737376,-78.140832,,,,,,0,
5361,WY5361,50 Oak St-Warsaw,,42.73841,-78.141093,,,,,,0,
5362,WY5362,Oak & W Buffalo-Warsaw,,42.739989,-78.140922,,,,,,0,
5363,WY5363,W Buffalo & Center-Warsaw,,42.7402,-78.136823,,,,,,0,
5364,WY5364,100 W Buffalo St-Warsaw,,42.74017,-78.133744,,,,,,0,
5365,WY5365,65 S Main St-Warsaw,,42.739174,-78.13268,,,,,,0,
5366,WY5366,W Brooklyn & Center-Warsaw,,42.737309,-78.135754,,,,,,0,
5367,WY5367,Warsaw Village Park,,42.735647,-78.137315,,,,,,0,
5368,WY5368,Liberty & Jefferson-Warsaw,,42.733928,-78.137366,,,,,,0,
5369,WY5369,Jefferson & Main-Warsaw,,42.733576,-78.132879,,,,,,0,
5370,WY5370,Allen & Main-Warsaw,,42.734915,-78.13244,,,,,,0,
5371,WY5371,Allen & Butternut-Warsaw,,42.735151,-78.130774,,,,,,0,
5372,WY5372,Butternut & Washington-Warsaw,,42.736681,-78.130777,,,,,,0,
5373,WY5373,Washington & Prospect-Warsaw,,42.736978,-78.128658,,,,,,0,
5374,WY5374,Prospect & Livingston-Warsaw,,42.739139,-78.128703,,,,,,0,
5375,WY5375,Livingston & Fargo-Warsaw,,42.739432,-78.1313,,,,,,0,
5376,WY5376,Grove & Butternut-Warsaw,,42.737878,-78.131088,,,,,,0,
5377,WY5377,Washington & S Main-Warsaw,,42.736922,-78.132307,,,,,,0,
5378,WY5378,Warsaw Big M,,42.73886,-78.132419,,,,,,0,
5379,WY5379,N Main & Frank-Warsaw,,42.74188,-78.132475,,,,,,0,
5380,WY5380,N Main & Elm-Warsaw,,42.744465,-78.132513,,,,,,0,
5381,WY5381,Rochester & Main-Warsaw,,42.746005,-78.132473,,,,,,0,
5382,WY5382,246 N Main-Warsaw,,42.748396,-78.132478,,,,,,0,
5383,WY5383,N Main & E Highland-Warsaw,,42.752316,-78.132467,,,,,,0,
5384,WY5384,Wyoming County Community Hospital,,42.754662,-78.131643,,,,,,0,
5385,WY5385,Wyoming County Mental Health,,42.755982,-78.128894,,,,,,0,
5386,WY5386,408 N Main St-Warsaw,,42.756629,-78.131527,,,,,,0,
5387,WY5387,422 N Main St-Warsaw,,42.757317,-78.131245,,,,,,0,
5388,WY5388,Crestview Terrace Apts-Warsaw,,42.756921,-78.128283,,,,,,0,
5389,WY5389,Salina & N Main-Warsaw,,42.757669,-78.129997,,,,,,0,
5390,WY5390,450 N Main St-Warsaw,,42.759138,-78.130531,,,,,,0,
5391,WY5391,Wyoming County DSS,,42.760738,-78.129763,,,,,,0,
5402,5402,Lyell & Saratoga,,43.164568,-77.629552,,,,,,0,
5403,5403,Dewey & Costar,,43.167874,-77.634752,,,,,,0,
5404,5404,Dewey & Costar,,43.167989,-77.635038,,,,,,0,
5405,5405,Dewey & Emerson,,43.173198,-77.638816,,,,,,0,
5406,5406,Dewey & Emerson,531 DEWEY AVE & LOCUST ST,43.174378,-77.639537,,,,,,0,
5475,5475,Dewey & Ronald,,43.235226,-77.646778,,,,,,0,
5479,5479,Clay & Walmart,,43.078765,-77.622155,,,,,,0,
5492,5492,Marketplace Dr. & opp Pepboys,,43.078729,-77.62633,,,,,,0,
5494,5494,Saginaw Dr.,,43.085531,-77.593421,,,,,,0,
5495,5495,Rue De Vl & Clinton,,43.122249,-77.592847,,,,,,0,
5496,5496,Lac De Ville & Brandywine,,43.118069,-77.590704,,,,,,0,
5497,5497,Lac De Ville & Westfall,,43.114546,-77.591915,,,,,,0,
5505,5505,Bill Gray's Iceplex,,43.098056,-77.604085,,,,,,0,
5506,5506,Jay & Verona,105 JAY ST & VERONA ST,43.16144,-77.623874,,,,,,0,
5668,5668,Saxton & Brown,,43.153806,-77.631846,,,,,,0,
5669,5669,Saxton & Brown,,43.153892,-77.632146,,,,,,0,
5670,5670,Alexander & opp 237 Alexander,,43.15085,-77.596518,,,,,,0,
5677,5677,Rt. 31 & Mobil [Lyons],,43.060812,-76.999891,,,,,,0,
5685,5685,Broad & 50 Broad,53 E BROAD ST,43.154623,-77.610562,,,,,,0,
5688,5688,South & Pavilion,1252 SOUTH AVE & PAVILION ST,43.130997,-77.610162,,,,,,0,
5689,5689,Main & Akron,,43.160129,-77.55373,,,,,,0,
5690,5690,Main & Spruce,,43.110004,-77.486647,,,,,,0,
5691,5691,Main & Spruce,,43.109776,-77.486598,,,,,,0,
5694,5694,Main & Brizee,,43.106997,-77.488015,,,,,,0,
5695,5695,Main & Elm,,43.112054,-77.485396,,,,,,0,
5697,5697,Portland & Lux,836 PORTLAND AVE & LUX ST,43.181076,-77.587253,,,,,,0,
5698,5698,South & Fort Hill,,43.121689,-77.615702,,,,,,0,
5699,5699,South & Fort Hill,,43.121783,-77.615499,,,,,,0,
5700,5700,RTS Transit Center,,43.158185,-77.608229,,,1,,,1,
5701,5701,Lyell & Warner,,43.164705,-77.644367,,,,,,0,
5702,5702,Lyell & Mart,535 LYELL AVE & WARNER ST,43.164573,-77.644555,,,,,,0,
5703,5703,St Paul & Scrantom,,43.171792,-77.621622,,,,,,0,
5715,5715,Westfall & 1350 Westfall,,43.115721,-77.582844,,,,,,0,
5717,5717,BayTowne Plaza Connection Hub,,43.192298,-77.498984,,,,,,0,
5718,5718,Baytowne Plaza,,43.191071,-77.501178,,,,,,0,
5719,5719,Brown & opp Hertel,,43.152019,-77.633532,,,,,,0,
5736,5736,Chili & KMart,,43.107094,-77.746599,,,,,,0,
5738,5738,Colfax & opp 575 Colfax,,43.176994,-77.66961,,,,,,0,
5739,5739,Chili Walmart,,43.133221,-77.689899,,,,,,0,
5741,5741,Kilmar & Norton,,43.187122,-77.59638,,,,,,0,
5742,L5742,11 Murray Hill-Mt. Morris,,42.733782,-77.883475,,,,,,0,
5743,L5743,Main & South-Geneseo,,42.793582,-77.817313,,,,,,0,
5744,WY5744,204 N. Main-Perry,,42.726032,-77.991184,,,,,,0,
5747,5747,East & Chestnut,,43.157072,-77.602843,,,,,,0,
5748,5748,Pittsford Palmyra & Courtney,,43.068972,-77.440238,,,,,,0,
5750,5750,Culver & Rocket,,43.174031,-77.558641,,,,,,0,
5754,5754,Washington & Monroe,,43.117068,-77.488334,,,,,,0,
5755,5755,Lake & opp Charlotte Harbortown,,43.253755,-77.611755,,,,,,0,
5760,5760,St Paul & Maplehurst,262 CALKINS ROAD,43.204702,-77.617745,,,,,,0,
5761,5761,Clinton & Sellinger,,43.171657,-77.612189,,,,,,0,
5762,5762,Joseph & Kelly,,43.167576,-77.607361,,,,,,0,
5763,5763,Andrews & Liberty Pole,,43.160513,-77.605003,,,,,,0,
5764,5764,Andrews & Franklin,,43.160598,-77.605444,,,,,,0,
5765,5765,Browncroft & Quentin,,43.157159,-77.547426,,,,,,0,
5766,5766,Browncroft & Merchants,,43.157192,-77.543615,,,,,,0,
5767,5767,Browncroft & Winton,,43.157022,-77.547855,,,,,,0,
5770,5770,Blossom & Marion,,43.149555,-77.557692,,,,,,0,
5771,5771,Blossom & Marion,,43.149451,-77.558084,,,,,,0,
5772,5772,Blossom Loop Connection Hub,,43.149242,-77.543786,,,,,,0,
5773,5773,Broad & Plymouth,,43.154011,-77.61467,,,,,,0,
5774,5774,Ford & Champlain,,43.145016,-77.618996,,,,,,0,
5775,5775,Ford & Champlain,,43.144887,-77.61921,,,,,,0,
5776,5776,Broad & Plymouth,,43.154206,-77.614913,,,,,,0,
5777,5777,Broad & opp 50 Broad,,43.154486,-77.610931,,,,,,0,
5778,5778,Jefferson & Clifton,,43.150072,-77.62894,,,,,,0,
5779,5779,Jefferson & Tremont,,43.147975,-77.629107,,,,,,0,
5780,5780,Jefferson & Clifton,,43.149539,-77.629116,,,,,,0,
5795,5795,Maple & Independence,,43.155246,-77.657839,,,,,,0,
5796,5796,Maple & Independence,,43.155352,-77.657518,,,,,,0,
5797,5797,Park Ridge Hospital Driveway,,43.193551,-77.702755,,,,,,0,
5798,5798,Park Ridge Hospital Driveway,,43.193609,-77.702627,,,,,,0,
5800,5800,Dewey & Bloss,,43.16994,-77.636301,,,,,,0,
5801,5801,Dewey & Bloss,,43.170073,-77.636576,,,,,,0,
5802,5802,Ridge & 1050 Ridge,,43.197294,-77.590025,,,,,,0,
5803,5803,Ridge & Seneca,,43.195223,-77.608798,,,,,,0,
5804,5804,Ridge & Argonne,,43.194742,-77.611065,,,,,,0,
5805,5805,Ridge & 2300 Ridge,,43.208525,-77.688375,,,,,,0,
5806,5806,Ridge & Clinton,,43.194419,-77.611629,,,,,,0,
5807,5807,Ridge & 513 Ridge,,43.195395,-77.605112,,,,,,0,
5808,5808,Ridge & Hudson,,43.195994,-77.6004,,,,,,0,
5809,5809,Ridge & 999 Ridge,,43.197106,-77.590446,,,,,,0,
5810,5810,Goodman & East,,43.153291,-77.588174,,,,,,0,
5811,5811,Goodman & East,,43.153646,-77.588214,,,,,,0,
5812,5812,Goodman & University,,43.156175,-77.586668,,,,,,0,
5813,5813,Goodman & University,,43.156661,-77.586586,,,,,,0,
5814,5814,Goodman & College,,43.158963,-77.585178,,,,,,0,
5815,5815,Culver & Empire,,43.175593,-77.557669,,,,,,0,
5816,5816,Culver & opp Lancraft,,43.177749,-77.558358,,,,,,0,
5817,5817,Culver & Brower,,43.198184,-77.561477,,,,,,0,
5818,5818,Culver & Ransford,,43.200566,-77.561616,,,,,,0,
5819,5819,Culver & opp Ransford,,43.200592,-77.561819,,,,,,0,
5820,5820,Culver & Heberton,,43.198144,-77.561675,,,,,,0,
5821,5821,Culver & Norton,,43.188302,-77.561102,,,,,,0,
5822,5822,Culver & Densmore,,43.18385,-77.560853,,,,,,0,
5823,5823,Culver & opp Seymour,,43.180786,-77.560667,,,,,,0,
5824,5824,Goodman & Park,,43.150845,-77.589722,,,,,,0,
5825,5825,Crittenden & Corporate Woods,,43.105929,-77.619576,,,,,,0,
5840,5840,Penfield & Linear Park,,43.128384,-77.484124,,,,,,0,
5841,5841,Fairport Nine Mile Point & Baptist,,43.109952,-77.44168,,,,,,0,
5842,5842,Fairport Nine Mile Point & White Pi,,43.11091,-77.441852,,,,,,0,
5843,5843,Fairport Nine Mile Point & Eagle Va,,43.118215,-77.441547,,,,,,0,
5844,5844,Fairport Nine Mile Point & opp Eagl,,43.119764,-77.441723,,,,,,0,
5848,5848,Jefferson & Regional Market,,43.087344,-77.613692,,,,,,0,
5849,5849,Pittsford Palmyra & Bardney,,43.068634,-77.428825,,,,,,0,
5850,5850,Pittsford Palmyra & Stream View,,43.068809,-77.429119,,,,,,0,
5851,5851,Pittsford Palmyra & opp Mill,,43.075611,-77.468133,,,,,,0,
5852,5852,Mt. Read & English,,43.238661,-77.659031,,,,,,0,
5853,5853,Mt. Read & English,,43.238626,-77.659236,,,,,,0,
5854,5854,Latta & Island Cottage,,43.252797,-77.666119,,,,,,0,
5864,5864,Elmwood & Winton,,43.126453,-77.56653,,,,,,0,
5865,5865,S. Goodman & S. Clinton,,43.139479,-77.596112,,,,,,0,
5866,5866,Eastman Avenue Connection Hub,Eastman Ave & Mayflower St,43.201646,-77.640043,,,,,,0,
5867,5867,Mt. Read & Latta,,43.251561,-77.659104,,,,,,0,
5868,5868,Mt. Read & Latta,,43.251966,-77.659348,,,,,,0,
5898,5898,Elmgrove & Initiative Drive,,43.148142,-77.732397,,,,,,0,
5901,5901,Lexington & Norman,,43.179309,-77.650353,,,,,,0,
5902,5902,Ridge & Home Depot,,43.204738,-77.662158,,,,,,0,
5903,5903,Brooks & Wegmans Dist Ctr,,43.130772,-77.676825,,,,,,0,
6053,6053,Chili & Chili Town Hall,,43.100766,-77.759038,,,,,,0,
6054,6054,Chili & Chili Town Hall,,43.100705,-77.759399,,,,,,0,
6101,6101,Lake & Opp Hanford Landing,LAKE AVE & HANFORD LANDING ROAD,43.200253,-77.627653,,,,,,0,
6102,6102,Westfall Rd & 1341 Westfall Rd,WESTFALL ROAD & AVALON DR,43.115555,-77.583863,,,,,,0,
6103,6103,Jefferson & Opp Post Office,,43.087128,-77.595088,,,,,,0,
6104,6104,S Clinton & Karges,,43.140695,-77.596802,,,,,,0,
